,State,District,Latitude,Longitude,Population,Male,Female,Literate,Male_Literate,Female_Literate,SC,Male_SC,Female_SC,ST,Male_ST,Female_ST,Workers,Male_Workers,Female_Workers,Hindus,Muslims,Christians,Sikhs,Buddhists,Jains,Others_Religions,Religion_Not_Stated,LPG_or_PNG_Households,Housholds_with_Electric_Lighting,Households_with_Internet,Households_with_Computer,Rural_Households,Urban_Households,Households,Below_Primary_Education,Primary_Education,Middle_Education,Secondary_Education,Higher_Education,Graduate_Education,Other_Education,Literate_Education,Illiterate_Education,Total_Education,Age_Group_0_29,Age_Group_30_49,Age_Group_50,Age not stated,Ownership_Owned_Households,Ownership_Rented_Households,Household_size_1_to_2_persons,Household_size_3_to_5_persons_Households,Household_size_6_8_persons_Households,Household_size_9_and_above,Sex Ratio
0,Andhra Pradesh,Adilabad,19.284513950073435,78.81321233480176,2741239,1369597,1371642,1483347,856350,626997,488596,242844,245752,495794,247472,248322,1323667,748939,574728,2399901,275970,15422,1377,25510,617,322,22120,194954,566108,5512,45202,597466,220248,817714,232470,344167,281752,225957,143143,100226,19277,1346992,1030640,2377632,1536378,704551,422522,77788,559211,77594,107798,417387,114585,12000,1001.0
1,Andhra Pradesh,Anantapur,14.312065561843148,77.4601584478577,4081148,2064495,2016653,2310960,1338474,972486,583135,292379,290756,154127,78573,75554,2036166,1208544,827622,3599372,443456,20463,932,341,1417,309,14858,223016,897970,8606,48299,902997,341431,1244428,462273,720357,582075,331793,162175,144915,23341,2426929,1369069,3795998,2189396,1104565,739612,47575,779195,172680,143093,644263,153243,20566,977.0
2,Andhra Pradesh,Chittoor,13.33109263067696,78.92763898886037,4174064,2090204,2083860,2667878,1484794,1183084,785760,389582,396178,159165,79756,79409,1933357,1202223,731134,3737588,397870,24129,867,253,1322,358,11677,324406,944555,13763,67087,907970,395900,1303870,522961,770836,673197,548336,265199,246409,36017,3062955,1170993,4233948,2148179,1159053,807430,59402,815953,196720,187320,678054,142837,13905,997.0
3,Andhra Pradesh,East Godavari,16.782718320784902,82.2432074720511,5154296,2569688,2584608,3288577,1716933,1571644,945269,468883,476386,213195,104422,108773,2093681,1545831,547850,4983330,77777,77825,738,413,4149,403,9661,479914,1297273,22411,93784,1199479,406362,1605841,669420,947606,797497,521562,271809,263023,47702,3518619,1524603,5043222,2724328,1478954,948122,2892,1088823,278383,335006,952492,112434,7478,1006.0
4,Andhra Pradesh,Guntur,15.884925767634847,80.58657614107885,4887813,2440521,2447292,2960441,1634726,1325715,957407,476333,481074,247089,125105,121984,2381624,1442370,939254,4217597,559770,89763,764,323,3282,332,15982,648568,1186028,19383,80434,1069877,513113,1582990,736270,845810,674957,453446,246580,221924,30279,3209266,1474349,4683615,2583462,1371811,928462,4078,981115,276073,295615,842985,139120,10111,1003.0
5,Andhra Pradesh,Hyderabad,17.38971555555556,78.46668888888888,3943323,2018575,1924748,2892155,1542688,1349467,247927,124313,123614,48937,25556,23381,1413297,1045585,367712,2046051,1713405,87522,11446,1268,19560,1929,62142,581509,869721,149034,274653,0,1066289,1066289,230962,596591,685215,811501,517425,558090,45937,3445721,556902,4002623,2249130,1068243,542669,83281,437146,422826,110910,546260,181806,42536,954.0
6,Andhra Pradesh,Karimnagar,18.515483193277312,79.43765428571413,3776269,1880800,1895469,2206829,1257238,949591,709757,352481,357276,106745,53495,53250,1876768,1049463,827305,3491139,244723,24979,2086,332,312,115,12583,344667,926768,8831,46584,877236,288044,1165280,340372,453505,482842,463403,293493,256633,35312,2325560,1280393,3605953,1940234,1031735,728494,75806,823820,141432,201672,649211,120450,9406,1008.0
7,Andhra Pradesh,Khammam,17.683921325051784,80.67008643892335,2797370,1390988,1406382,1630234,901640,728594,462896,229905,232991,765565,378532,387033,1410062,802906,607156,2595321,158887,33463,655,217,459,539,7829,219710,668519,8628,42171,669262,201363,870625,295639,346118,329630,238811,154774,160804,25456,1551232,875272,2426504,1530602,774583,477955,14230,616617,115379,159883,512966,69643,5094,1011.0
8,Andhra Pradesh,Krishna,16.143872753151673,81.14805061000413,4517398,2267375,2250023,3009718,1598959,1410759,871063,435412,435651,132464,66734,65730,2048880,1327299,721581,4023678,307043,145598,1393,863,6320,906,31597,632890,1163932,30438,101450,909292,567042,1476334,618101,692968,630603,531821,312753,328454,54728,3169428,1352499,4521927,2340943,1284630,833959,57866,863382,328243,299154,824868,95350,7885,992.0
9,Andhra Pradesh,Kurnool,15.43759715142429,77.90086836581717,4053463,2039227,2014236,2127161,1246369,880792,737945,370215,367730,82831,42052,40779,2029425,1164122,865303,3328380,670737,33165,737,255,2235,434,17520,195001,816721,10081,56478,783853,306982,1090835,521327,672951,466940,271828,152453,115504,19282,2220285,1517933,3738218,2368684,1053618,609027,22134,710444,156505,116088,547505,181675,31914,988.0
10,Andhra Pradesh,Mahbubnagar,16.639546224256293,77.98933089244859,4053028,2050386,2002642,1940646,1158386,782260,708954,356099,352855,364269,187035,177234,2082501,1140067,942434,3673456,334172,21345,658,290,388,267,22452,136843,757821,6153,60812,848963,161052,1010015,419379,596134,441585,308575,169083,98227,16121,2049104,1604319,3653423,2360874,1027525,637430,27199,800743,66068,105279,541398,191259,35923,977.0
11,Andhra Pradesh,Medak,17.889304978038055,78.13778901903379,3033288,1523030,1510258,1637137,953406,683731,537947,266413,271534,168985,86574,82411,1442203,837874,604329,2637313,342449,34301,1309,554,457,217,16688,163074,604719,8635,47170,593653,195479,789132,324267,503713,481984,373729,201928,127493,16466,2029580,1199818,3229398,1735769,779738,509368,8413,570933,90125,84875,419073,140018,22798,992.0
12,Andhra Pradesh,Nalgonda,17.113250515463907,79.16984453608244,3488809,1759772,1729037,2001019,1160757,840262,637385,318359,319026,394279,203876,190403,1741693,976428,765265,3249231,188646,35025,937,241,250,132,14347,228818,789225,7715,53777,833504,197433,1030937,369537,518669,471233,367424,238695,196134,27003,2188695,1294811,3483506,1932349,897137,651748,7575,760789,103172,165334,578886,119437,11775,983.0
13,Andhra Pradesh,Nizamabad,18.429485849056604,78.07523490566035,2551335,1250641,1300694,1389810,790214,599596,371074,178798,192276,192941,95679,97262,1261076,684320,576756,2123426,391596,19653,2357,1847,542,146,11768,186740,545913,5261,35036,565165,155133,720298,269487,421399,338668,396396,223365,141850,13382,1804547,1041862,2846409,1399773,676401,437573,37588,490840,93887,90591,379595,107972,12575,1040.0
14,Andhra Pradesh,Prakasam,15.489039001601704,80.11665790176184,3397448,1714764,1682684,1904435,1107686,796749,787861,397242,390619,151145,76677,74468,1700567,991842,708725,3150195,220654,18775,266,97,204,206,7051,290947,763746,6151,43611,873486,214089,1087575,489805,495556,368919,249034,142026,133627,21976,1900943,1218310,3119253,1832695,917391,641707,5655,717208,127205,181210,548015,115932,12119,981.0
15,Andhra Pradesh,Srikakulam,18.570900998697432,84.25874814010675,2703114,1341738,1361376,1495381,857824,637557,255664,125214,130450,166118,81382,84736,1290288,766483,523805,2666950,9025,18879,193,77,160,106,7724,149554,615432,3988,32280,752752,149684,902436,291793,348354,319244,251521,146721,121213,21031,1499877,1009992,2509869,1423119,747385,528736,3874,610487,68045,129328,464451,85869,9675,1015.0
16,Andhra Pradesh,Vizianagaram,18.28329696032972,83.45982854198873,2344474,1161477,1182997,1238388,707503,530885,247728,121493,126235,235556,114687,120869,1157962,679289,478673,2299129,16423,17853,380,114,815,183,9577,140361,527736,4453,24128,592458,157056,749514,250446,300057,257468,186576,115144,103591,27041,1240323,1031683,2272006,1206366,666394,451469,20245,514227,68076,105327,403386,80085,7807,1019.0
17,Andhra Pradesh,Warangal,18.01752608695651,79.87422028985509,3512576,1759281,1753295,2065023,1179790,885233,616102,307709,308393,530656,268976,261680,1705655,960926,744729,3273755,197333,31377,1453,253,569,126,7710,237349,828077,12952,59006,758738,288249,1046987,314252,457529,454322,430242,279234,248942,27663,2212184,1191252,3403436,1891954,941452,664872,14298,761465,117060,168039,593070,117016,10428,997.0
18,Andhra Pradesh,West Godavari,16.63297943925236,81.45912990654196,3936966,1964918,1972048,2652389,1379223,1273166,811698,403693,408005,109072,53367,55705,1773112,1199338,573774,3733191,86142,109120,288,209,1578,211,6227,435334,1017568,12050,55613,1007255,248373,1255628,595331,718960,585595,415178,215863,207586,33329,2771842,1028767,3800609,2051513,1127764,755533,2156,836015,207958,263697,724609,82492,4982,1004.0
19,Arunachal Pradesh,Changlang,27.36048479338845,96.37552644628106,148226,76948,71278,73174,44027,29147,0,0,0,53878,27061,26817,62966,39329,23637,47683,2134,35969,94,50381,95,11738,132,4762,14593,170,1486,33422,6498,39920,20425,22537,17354,10032,5641,3633,834,80456,57290,137746,96630,35018,16414,164,20141,5793,3559,13892,8962,2015,926.0
20,Arunachal Pradesh,East Kameng,27.371194055944056,93.04741486013997,78690,38775,39915,38449,21599,16850,0,0,0,72400,35266,37134,31710,16424,15286,12333,652,37136,36,452,23,27868,190,3583,5318,57,885,14503,5215,19718,11713,10487,8852,6213,4510,2330,142,44247,31763,76010,53752,17922,6960,56,12051,2014,1562,6187,5600,1261,1029.0
21,Arunachal Pradesh,East Siang,28.15382352941176,95.06499226006191,99214,50116,49098,62576,34210,28366,0,0,0,69979,34533,35446,40222,23591,16631,27854,2289,18254,69,776,30,49393,549,4866,14231,450,1582,19497,9524,29021,9938,13713,13968,10937,9498,6540,525,65119,21543,86662,61993,25334,11802,85,11640,5518,2813,8102,6270,1910,980.0
22,Arunachal Pradesh,Kurung Kumey,28.04853351800553,93.24531994459834,92076,45318,46758,36606,20258,16348,0,0,0,90764,44459,46305,38044,18429,19615,4859,471,51189,43,121,81,34158,1154,586,3911,95,969,18603,1092,19695,12661,15054,12264,6997,4353,2031,299,53659,42621,96280,64379,20713,6836,148,15458,410,832,5358,8718,1054,1032.0
23,Arunachal Pradesh,Lohit,27.946785273972623,96.59670770547945,145726,76221,69505,83062,48380,34682,0,0,0,47410,23457,23953,60945,38910,22035,99020,3846,10684,210,24452,104,7277,133,6549,17157,312,1471,33599,11372,44971,19306,25179,20643,13070,7612,5180,584,91574,52421,143995,94890,35493,15195,148,17340,7188,3981,15082,8813,1531,912.0
24,Arunachal Pradesh,Lower Dibang Valley,28.32651730103806,95.76567335640142,54080,28053,26027,31849,18087,13762,0,0,0,25974,12649,13325,22326,14102,8224,28915,2247,9213,33,2932,19,10393,328,3068,5932,207,742,12000,3950,15950,5875,7957,7351,5508,3570,2795,85,33141,14406,47547,35140,13254,5652,34,5317,3805,1964,5222,3048,649,928.0
25,Arunachal Pradesh,Lower Subansiri,27.70849297297297,93.96226108108112,83030,41843,41187,54057,29470,24587,0,0,0,72911,35803,37108,30202,17339,12863,9551,1482,34402,27,193,13,37085,277,4211,12493,381,1598,18112,5365,23477,8492,10821,11661,9861,7674,5230,295,54034,17273,71307,55258,20305,7412,55,11259,3062,2185,5721,5450,1778,984.0
26,Arunachal Pradesh,Papum Pare,27.273529716981127,93.54468183962264,176573,89182,87391,121048,65794,55254,0,0,0,117216,56469,60747,65772,41263,24509,57027,6148,84397,310,4768,139,22586,1198,22966,30539,2477,7418,20308,30180,50488,15368,21956,21376,20007,17342,13840,926,110815,30360,141175,120592,43812,11856,313,15037,12769,5081,16296,9382,2717,980.0
27,Arunachal Pradesh,Tawang,27.680683962264148,91.82504245283016,49977,29151,20826,26073,17720,8353,0,0,0,34811,16770,18041,28561,19554,9007,11842,787,776,1164,34920,72,349,67,3794,8635,96,494,10730,2452,13182,4904,4730,4029,2140,1989,1379,667,19838,19203,39041,30709,13849,5399,20,6820,2134,2397,4886,2034,160,714.0
28,Arunachal Pradesh,Tirap,26.94406229508198,95.41470327868862,111975,57604,54371,47974,29313,18661,0,0,0,98372,49365,49007,50169,27545,22624,20682,1103,83361,61,778,43,5325,622,3104,16026,98,888,18420,6500,24920,13585,16989,12077,7834,4305,2134,182,57106,50628,107734,71785,25669,14423,98,15861,2575,2362,7974,6681,2468,944.0
29,Arunachal Pradesh,Upper Siang,28.8309244897959,95.00155765306124,35320,18699,16621,18195,10723,7472,0,0,0,28468,14413,14055,17644,9968,7676,5261,411,5643,27,2577,7,20967,427,1504,6198,97,392,8569,2182,10751,3952,5584,4915,2935,2211,1349,46,20992,11209,32201,21090,8910,5252,68,5393,1047,1628,2749,2100,709,889.0
30,Arunachal Pradesh,Upper Subansiri,28.277196566523585,93.8991435622318,83448,41758,41690,45278,24807,20471,0,0,0,78323,38570,39753,33370,17898,15472,13474,521,8779,28,297,11,59449,889,3123,5373,139,750,14542,4672,19214,10219,16118,15339,10348,8017,4276,473,64790,28364,93154,56054,20055,7230,109,13420,1635,1526,6935,6174,906,998.0
31,Arunachal Pradesh,West Kameng,27.46486582278483,92.65015750452083,83947,46155,37792,48492,29566,18926,0,0,0,46380,22771,23609,42493,28313,14180,31265,1970,8466,328,36087,71,5556,204,7133,14188,202,887,17889,6306,24195,8836,10317,8428,5633,3987,2693,299,40193,25606,65799,53026,22362,8493,66,9390,5787,3128,8509,4146,622,819.0
32,Arunachal Pradesh,West Siang,28.106296920289843,94.53510344202908,112274,58168,54106,64746,36777,27969,0,0,0,92783,45746,47037,49177,29156,20021,15881,2218,29969,577,3311,49,60005,264,6115,14204,303,1300,22272,8503,30775,14227,17675,15908,11441,8418,6030,521,74220,27956,102176,70415,28305,13469,85,14876,4678,2412,8169,7494,2399,930.0
33,Assam,Barpeta,26.427872264631056,90.97912010178116,1693622,867004,826618,897058,499038,398020,95320,49165,46155,27344,13530,13814,561824,445297,116527,492966,1198036,1020,112,49,399,14,1026,50806,84804,2078,25286,447189,52192,499381,210607,307884,300845,121924,87377,46947,8007,1083591,664161,1747752,1072312,405046,215355,909,326160,7625,31807,190552,95730,20383,953.0
34,Assam,Bongaigaon,26.45012521994133,90.6734296187684,738804,375818,362986,434078,237114,196964,82784,42513,40271,18835,9377,9458,255806,197542,58264,359145,371033,5924,384,236,871,9,1202,29937,49866,2523,12959,181923,38470,220393,93591,138294,133643,55924,35491,20221,2267,479431,260721,740152,458796,184849,94939,220,134382,12007,15751,85826,39096,9614,966.0
35,Assam,Cachar,24.815570668693017,92.86849650455927,1736617,886284,850333,1174128,639946,534182,264897,136051,128846,17569,8736,8833,608062,469752,138310,1038985,654816,37635,280,341,1673,98,2789,62135,140205,5316,37541,346227,88933,435160,256855,447993,379469,156156,79766,45341,12951,1378531,357907,1736438,1048990,444899,241776,952,324905,25190,56910,203831,93340,13962,959.0
36,Assam,Darrang,26.58463215962442,92.04141338028155,928500,475273,453227,487039,268666,218373,40260,20566,19694,8419,4300,4119,324843,246864,77979,327322,597392,1688,431,57,724,19,867,17676,45444,1166,12084,268517,20189,288706,119027,163277,161153,59039,47398,22267,3079,575240,375556,950796,583436,226525,118102,437,180669,3789,19407,106839,50693,11113,954.0
37,Assam,Dhemaji,27.586533438485816,94.71336908517353,686133,351249,334884,423028,237761,185267,44225,23006,21219,325560,165449,160111,316800,186577,130223,655052,13475,8711,297,911,167,6315,1205,16547,28195,1192,10410,211758,16504,228262,79107,138838,136371,80804,55399,28006,2868,521393,194984,716377,434221,169630,82051,231,122182,5984,8303,69390,41922,9944,953.0
38,Assam,Dibrugarh,27.30612284482757,95.0998282327587,1326335,676434,649901,884531,491361,393170,58876,30517,28359,102871,51835,51036,560557,368013,192544,1198401,64526,52968,2261,4673,1055,46,2405,76292,136685,8817,34479,299852,77163,377015,143189,243607,301287,139813,89500,59380,6984,983760,340744,1324504,767147,371864,186774,550,195303,38157,28094,161208,70958,12681,961.0
39,Assam,Goalpara,26.017277777777807,90.59869891598912,1008183,513292,494891,563577,304302,259275,45094,22999,22095,231570,116013,115557,362573,267118,95455,347878,579929,77862,771,194,477,103,969,21455,78641,1364,13524,228610,39504,268114,124700,213510,183904,73683,39885,18294,3464,657440,375071,1032511,650509,239831,117427,416,190189,4793,18921,108374,56821,13429,964.0
40,Assam,Golaghat,26.377219709794485,93.82583397823468,1066888,543161,523727,721764,396475,325289,62298,31807,30491,111765,56420,55345,479928,309104,170824,917426,90312,50582,1131,3863,530,1347,1697,40889,82345,3073,17636,292893,34190,327083,117393,223902,261192,111145,66197,36887,4084,820800,258897,1079697,629153,289085,148244,406,193055,12450,22125,137370,55869,9489,964.0
41,Assam,Hailakandi,24.457496089385486,92.59154664804475,659296,337890,321406,407366,226836,180530,70659,36369,34290,691,354,337,214240,170792,43448,251194,397653,8480,84,490,247,636,512,11035,44143,1211,10615,159215,16202,175417,88596,177984,139029,50056,28504,11608,4265,500042,173306,673348,419921,156243,82841,291,134032,4264,25569,73531,38038,6429,951.0
42,Assam,Jorhat,26.76244824016563,94.30197722567289,1092256,556805,535451,794929,432335,362594,88665,45194,43471,139971,70795,69176,498618,320746,177872,1008219,54684,21051,1540,2378,719,578,3087,71639,122063,5651,26357,286330,80824,367154,99454,201680,295444,128050,97025,62608,8433,892694,209170,1101864,604908,315550,171062,736,196137,21137,25296,144578,53066,10178,962.0
43,Assam,Kamrup,26.170939452054807,91.58863273972592,1517542,778461,739081,995319,550219,445100,107827,55237,52590,182038,92094,89944,628954,428492,200462,877495,601784,33297,319,185,1330,55,3077,70272,122191,3109,23468,390596,43849,434445,163849,290097,353861,154831,118849,55011,6444,1142942,392678,1535620,895775,408232,212740,795,295002,7808,24211,184261,79952,16918,949.0
44,Assam,Karbi Anglong,26.08966454598031,93.11536570271832,956313,490167,466146,557214,314253,242961,44961,23436,21525,538738,272460,266278,383441,246193,137248,766000,20290,157789,370,6260,397,3568,1639,18763,53918,1923,11340,215691,37185,252876,109324,212224,199289,93137,40602,18225,3426,676227,310093,986320,618633,233739,103123,818,155192,16484,15406,87093,59266,15226,951.0
45,Assam,Karimganj,24.69660712250711,92.3679498575498,1228686,625864,602822,795297,435942,359355,157890,81384,76506,1940,994,946,399171,319798,79373,521962,692489,11990,114,446,524,110,1051,28261,70951,1933,24699,261945,32695,294640,198059,333885,257931,76685,39637,21408,7903,935508,303785,1239293,779850,284368,163990,478,230546,10212,37517,119294,72351,18085,963.0
46,Assam,Kokrajhar,26.497246635730868,90.13997470997688,887142,452905,434237,489305,275220,214085,29570,15386,14184,278665,139579,139086,341131,236322,104809,529068,252271,101091,93,1718,396,123,2382,15089,41373,1218,14063,204896,17115,222011,116899,166013,154715,78788,39571,17287,2733,576006,340601,916607,552671,224715,108956,800,171597,4205,17678,102861,50540,8992,959.0
47,Assam,Lakhimpur,27.14128805970149,94.0775949253732,1042137,529674,512463,683486,375552,307934,81840,41689,40151,249426,126716,122710,429995,282250,147745,797130,193476,46217,412,1074,250,2410,1168,32104,60296,1948,15011,293239,34694,327933,126950,212080,217497,107326,82885,44212,4731,795681,275677,1071358,639385,268872,133615,265,183814,12407,15880,113696,59383,14313,968.0
48,Assam,Nagaon,26.26462170626351,92.9306191144708,2823768,1439112,1384656,1710716,921850,788866,266350,136473,129877,115153,57759,57394,979998,766728,213270,1225246,1563203,26844,3036,1073,1162,61,3143,89206,195631,5121,45956,674999,124186,799185,392616,638088,576214,199792,115864,66994,10351,1999919,873197,2873116,1778277,678034,366112,1345,509358,32751,58220,302531,160725,39381,962.0
49,Assam,Nalbari,26.46323767605632,91.40598521126763,771639,396006,375633,531771,293184,238587,60216,30654,29562,23364,11692,11672,267623,210202,57421,491582,277488,429,62,27,1004,9,1038,37849,68313,1631,12360,210706,28238,238944,75866,141690,192771,81507,71734,39368,3693,606629,188960,795589,442061,211320,117809,449,149314,4519,12138,91709,42345,9160,949.0
50,Assam,Sonitpur,26.73514926829268,92.85197804878044,1924110,983904,940206,1108572,620525,488047,109130,55817,53313,232207,117685,114522,770606,537195,233411,1422824,350536,138166,1363,5088,1003,221,4909,70047,133368,4358,31254,483325,64528,547853,216097,416218,377653,141373,90385,49901,6412,1298039,627141,1925180,1159991,501239,261648,1232,323644,22030,37955,219954,108021,20969,956.0
51,Assam,Tinsukia,27.53549291139241,95.69055949367085,1327929,680231,647698,798322,453449,344873,37688,19443,18245,82066,41769,40297,557196,366623,190573,1181347,48373,76877,1999,16228,837,395,1873,70471,161718,5135,27948,290704,90910,381614,150893,266717,276292,109805,61040,38152,7353,910252,417081,1327333,799874,352158,175377,520,179202,37251,29527,147468,76134,15254,952.0
52,Bihar,Araria,26.211528119180603,87.30766554934816,2811569,1463333,1348236,1195768,727643,468125,382654,198247,184407,38848,19887,18961,1069893,708391,361502,1593525,1207442,4116,371,187,1910,63,3955,17004,43290,2561,29796,659061,44213,703274,625357,426625,206161,112955,68177,39627,6938,1485840,1653766,3139606,1872943,612012,324091,2523,550065,6185,80376,277849,175194,28036,921.0
53,Bihar,Aurangabad,24.774291867469877,84.45986024096379,2540073,1318684,1221389,1466002,868733,597269,612064,316161,295903,1033,500,533,837770,599157,238613,2291133,237353,2218,295,334,775,19,7946,24106,44456,2362,31168,428291,49006,477297,559512,482199,302662,253142,136783,91371,8329,1833998,784131,2618129,1626969,564571,340948,7585,377134,6754,30619,137515,143408,75580,926.0
54,Bihar,Aurangabad,24.774291867469877,84.45986024096379,3701282,1924469,1776813,2503837,1430936,1072901,539368,277228,262140,143366,73876,69490,1575079,1015864,559215,2545438,786677,15991,5142,309093,30981,1005,6955,246324,589477,23258,69937,551789,427343,979132,381695,686271,422964,537936,310762,253253,19101,2611982,819734,3431716,2211996,909771,571932,7583,580691,138210,85884,415993,186833,47877,923.0
55,Bihar,Banka,24.832355642023337,86.8664916342413,2034763,1067140,967623,965321,590961,374360,247858,129663,118195,90432,45901,44531,771080,517817,253263,1772655,250925,6138,139,113,94,1035,3664,15459,62359,1704,22300,425604,18492,444096,408188,386707,196305,120653,63103,35767,3922,1214645,879831,2094476,1291235,462080,278863,2585,372571,3728,38997,181580,128170,31266,907.0
56,Bihar,Begusarai,25.54302613168723,86.12560144032932,2970541,1567660,1402881,1548673,918507,630166,432270,227481,204789,1597,848,749,938182,715345,222837,2554330,407348,2209,402,229,276,57,5690,49493,120373,4644,43127,594377,139248,733625,577601,484502,291877,207136,144783,101836,14599,1822334,1242551,3064885,1951688,644874,369996,3983,577162,10968,85210,286725,184650,39525,895.0
57,Bihar,Bhagalpur,25.277192885375477,87.04213814229242,3037766,1615663,1422103,1573066,937669,635397,318569,169667,148902,67180,35545,31635,983528,740056,243472,2487866,537098,3556,415,180,1050,32,7569,63241,174534,6764,46929,522527,130634,653161,614644,524322,300767,247079,154643,118843,16119,1976417,1139715,3116132,1952879,674660,397654,12573,540365,13460,59018,264904,191216,48168,880.0
58,Bihar,Bhojpur,25.50666439393939,84.49407803030304,2728407,1430380,1298027,1599151,973486,625665,425402,222716,202686,13977,7363,6614,822493,640283,182210,2518216,197819,2165,544,647,1472,48,7496,45763,62153,3661,34658,434559,77368,511927,581580,605307,367059,313509,163303,131137,10630,2172525,1005140,3177665,1722387,613072,387389,5559,401256,9625,33629,142899,150381,88646,907.0
59,Bihar,Buxar,25.48593018867924,84.08808081760995,1706352,887977,818375,989807,593544,396263,251737,131821,119916,26824,14102,12722,538322,402180,136142,1591454,105423,2125,248,5090,97,57,1858,27362,46760,1784,19324,299252,35405,334657,331675,420187,256124,178044,89306,64117,5224,1344677,457814,1802491,1074754,375372,253998,2228,254972,4718,20068,88936,96849,56545,922.0
60,Bihar,Darbhanga,26.146187719298258,85.97387352472099,3937385,2059949,1877436,1816634,1125566,691068,615688,322327,293361,2772,1361,1411,1223640,947927,275713,3042729,881476,3534,832,245,236,101,8232,59510,127442,6280,53205,907174,95539,1002713,672797,490534,332382,224622,152540,129597,26073,2028545,2203198,4231743,2535344,865971,529314,6756,785953,10615,115803,396000,249637,44346,911.0
61,Bihar,Gaya,24.7266541547278,84.94291217765044,4391418,2266566,2124852,2297613,1368803,928810,1334351,683943,650408,3098,1635,1463,1664062,1076170,587892,3876395,488121,3943,913,870,1723,108,19345,57738,112617,6856,57011,696289,111282,807571,902272,757690,447480,342254,191824,131163,12047,2784730,1953368,4738098,2810026,936630,537333,107429,665673,18754,53453,252000,262055,122997,937.0
62,Bihar,Gopalganj,26.44874364161851,84.34636127167629,2562012,1267666,1294346,1382998,793905,589093,320064,159265,160799,60807,29833,30974,728201,539586,188615,2119262,436057,2463,271,167,133,28,3631,31193,69375,3707,33596,515925,38133,554058,540603,470828,291624,223776,123249,79109,7690,1736879,977719,2714598,1642807,546202,370662,2341,412706,5453,31186,145088,157982,87471,1021.0
63,Bihar,Jamui,24.78418380462726,86.26316298200514,1760405,916064,844341,858588,534385,324203,302649,155849,146800,78793,40185,38608,727571,452288,275283,1525746,217621,8443,162,159,87,3438,4749,12984,32633,1839,22414,325909,30851,356760,420472,317612,153973,104211,56137,29633,3439,1085477,765297,1850774,1135919,392052,227016,5418,300265,5351,30808,132724,102930,41829,922.0
64,Bihar,Jehanabad,25.155679045643165,84.9208124481328,1125313,585582,539731,618881,374412,244469,222974,115034,107940,1285,667,618,365378,266423,98955,1045117,75742,691,148,248,60,58,3249,15507,27641,1106,11302,186660,28132,214792,211761,165906,117558,112966,68748,45519,3539,725997,495877,1221874,714244,254582,155106,1381,176076,4205,14984,69576,65873,31213,922.0
65,Bihar,Katihar,25.56565356037151,87.70466083591326,3071029,1600430,1470599,1280190,762256,517934,263100,136429,126671,179971,92190,87781,1013566,760522,253044,1684589,1365645,8659,2754,212,507,2141,6522,32570,60900,2941,27263,668232,69838,738070,472616,444260,237243,133811,88498,57114,11896,1445438,1705551,3150989,2054202,660403,353483,2941,595596,11309,91428,297110,190893,37632,919.0
66,Bihar,Khagaria,25.53558891454964,86.56593256351037,1666886,883786,783100,768028,461153,306875,247161,130191,116970,675,352,323,560805,398216,162589,1486989,175588,1253,143,79,86,115,2633,15401,40641,1580,21654,373696,21007,394703,350601,233494,130004,100555,65931,38697,5969,925251,903323,1828574,1114645,355531,195796,914,321312,3292,44976,154724,109253,18748,886.0
67,Bihar,Kishanganj,26.324336758321294,87.95045007235886,1690400,866970,823430,745056,439921,305135,113118,57964,55154,64224,32506,31718,529064,421192,107872,531236,1149095,5783,398,183,1476,28,2201,11715,58718,1093,14073,401793,43357,445150,356401,235779,89025,42778,25989,15386,3761,769119,945397,1714516,1139615,361114,188447,1224,326865,4776,50719,153832,108403,22757,950.0
68,Bihar,Lakhisarai,25.183449321266963,86.12825701357468,1000912,526345,474567,507270,305182,202088,153209,80069,73140,8333,4247,4086,326576,240494,86082,956396,40886,487,140,52,78,52,2821,12938,44491,1186,8862,175882,31763,207645,172076,149312,111684,85807,48001,27261,3814,597955,450967,1048922,650642,218840,130655,775,158930,3444,12564,64137,62457,25272,902.0
69,Bihar,Madhepura,25.77341929460581,86.8978443983403,2001762,1047559,954203,834577,517666,316911,346275,179337,166938,12532,6442,6090,777546,496046,281500,1753829,241760,1342,170,60,133,81,4387,12302,23236,1397,23309,486278,24000,510278,340813,189431,114474,99437,79891,44955,6509,875510,1202278,2077788,1311771,444235,242382,3374,394241,3072,52192,203093,126649,19067,911.0
70,Bihar,Madhubani,26.41380538172716,86.16328360450552,4487379,2329313,2158066,2155338,1340085,815253,587158,303389,283769,3990,2056,1934,1636938,1105947,530991,3652168,818912,3262,564,328,442,169,11534,47090,113281,5319,65548,1047552,41234,1088786,783888,771417,520875,303114,170563,137780,11352,2698989,2003079,4702068,2860455,1009424,611899,5601,884913,8410,123167,441220,278421,58731,926.0
71,Bihar,Munger,25.198537962962963,86.54173672839504,1367765,729041,638724,801817,473741,328076,183846,97195,86651,21404,10995,10409,426658,327453,99205,1252319,110416,1815,338,95,145,61,2576,49141,90461,2653,17946,222281,85782,308063,226699,158699,146414,147152,101907,64469,4394,849734,498676,1348410,860147,316713,188319,2586,248457,11182,28389,130791,85773,18796,876.0
72,Bihar,Muzaffarpur,26.18664417177915,85.32745092024543,4801062,2527497,2273565,2509232,1487117,1022115,751975,393135,358840,5979,3124,2855,1547586,1195308,352278,4032773,745546,5149,933,288,382,98,15893,87796,180651,10290,73012,998694,120700,1119394,1092952,743623,419433,299475,194920,138916,14475,2903794,1924438,4828232,3016735,1079189,697108,8030,911967,22474,126489,459200,297357,64817,900.0
73,Bihar,Nalanda,25.229345508982053,85.48053113772461,2877653,1497060,1380593,1519933,919558,600375,607672,315240,292432,1442,728,714,1045420,703405,342015,2669775,198033,1978,393,414,561,64,6435,43761,101378,4156,43848,514141,102522,616663,581978,486266,320839,274556,177358,133032,11159,1985188,1324385,3309573,1829128,642197,403129,3199,464186,17540,43622,191481,175870,76349,922.0
74,Bihar,Nawada,24.825708836206903,85.61594568965519,2219146,1144668,1074478,1091012,659474,431538,565112,290050,275062,2045,997,1048,817041,539439,277602,1964620,244394,1299,250,176,279,80,8048,20522,31162,1841,28411,379551,45323,424874,601011,368649,195072,161127,95943,64585,3130,1489517,1091439,2580956,1440781,485628,288805,3932,336216,7706,24839,117974,132750,71186,939.0
75,Bihar,Pashchim Champaran,27.16064352201258,84.30265911949685,3935042,2061110,1873932,1759481,1091226,668255,553944,289191,264753,250046,127680,122366,1478947,999282,479665,3047427,865090,8469,926,1337,296,1895,9602,38414,57546,3495,41143,839514,96620,936134,1053481,543965,250243,159563,98732,70669,6035,2182688,1710878,3893566,2544205,888205,497793,4839,694531,7910,84988,299420,249111,74546,909.0
76,Bihar,Patna,25.40297114503818,85.3198433587787,5838465,3078512,2759953,3459679,2028047,1431632,920918,482088,438830,9069,4717,4352,1881886,1436411,445475,5356075,439952,12551,4803,1062,2151,203,21668,321307,546859,40692,132582,657991,552103,1210094,1244842,1095655,920051,698351,463361,452340,46126,4920726,2590473,7511199,3626564,1382654,815638,13609,829728,104162,78118,411646,328240,139437,897.0
77,Bihar,Purba Champaran,26.68129336734693,85.00382155612242,5099371,2681209,2418162,2276957,1407603,869354,649726,340363,309363,12461,6454,6007,1737539,1260774,476765,4086453,990349,4865,668,878,464,104,15590,52358,74979,7719,70258,1142260,101565,1243825,1280809,982506,450631,241118,121594,68781,5149,3150588,2142757,5293345,3316422,1122340,648009,12600,967001,9489,130391,447128,329859,76925,902.0
78,Bihar,Purnia,25.81714801901739,87.40447606973065,3264619,1699370,1565249,1332326,805261,527065,390991,203201,187790,139490,71391,68099,1143318,803275,340043,1989420,1255641,7989,614,353,1450,650,8502,33688,86058,4170,33664,712847,85749,798596,668690,360243,184327,119259,83226,59996,11116,1486857,1798786,3285643,2155512,696556,372692,39859,624039,8720,92221,304012,205154,39326,921.0
79,Bihar,Rohtas,24.99170460829495,83.9350762672811,2959918,1543546,1416372,1799832,1061783,738049,549546,286596,262950,31650,16399,15251,924879,707939,216940,2645415,300487,2889,2569,1584,252,537,6185,41659,114893,4594,36279,512383,95678,608061,535187,548971,399053,333053,194928,161555,16006,2188753,876443,3065196,1875174,673742,407193,3809,433720,15995,35246,166203,166881,87548,918.0
80,Bihar,Saharsa,25.821270696721303,86.54670819672135,1900661,997174,903487,804996,506374,298622,317249,164518,152731,6009,3101,2908,649898,456724,193174,1629254,266620,1292,197,60,109,8,3121,21651,41342,1668,19415,432651,38046,470697,348300,194897,104182,90182,64560,47051,6016,855188,1151349,2006537,1249692,415863,233870,1236,359161,5426,44773,179102,122491,21846,906.0
81,Bihar,Samastipur,25.793205563909765,85.94833323308269,4261566,2230003,2031563,2142880,1293575,849305,803128,417944,385184,1884,975,909,1343400,1037576,305824,3800598,452370,2126,554,292,231,112,5283,46123,88021,5379,50918,1012979,43486,1056465,781038,710468,438908,284082,186153,129933,19126,2549708,1996651,4546359,2766930,913339,568812,12485,829443,10874,113891,404835,274280,57347,911.0
82,Bihar,Saran,25.89656077844312,84.82266287425155,3951862,2022821,1929041,2157454,1285767,871687,474066,242976,231090,36786,18322,18464,1040231,857660,182571,3534772,406449,2330,371,229,322,107,7282,51822,94787,4509,37442,701323,76299,777622,793945,693465,433759,361171,213251,148065,9848,2653504,1313700,3967204,2516115,847031,585386,3330,628222,8764,52247,226877,238266,124352,954.0
83,Bihar,Sheikhpura,25.12472436548223,85.77839390862943,636342,329743,306599,328676,196431,132245,131115,67582,63533,617,305,312,224655,151569,73086,596102,37653,313,75,41,43,31,2084,6803,20065,631,8873,108293,24345,132638,129673,110525,59529,52860,33856,19676,3399,409518,305609,715127,413475,136898,85045,924,100345,2119,8345,36901,39065,19437,930.0
84,Bihar,Sheohar,26.458380748663107,85.29539411764709,656246,346673,309573,283698,171645,112053,96655,51089,45566,318,177,141,216372,166693,49679,552492,99342,522,216,73,52,44,3505,3983,10004,478,6698,158484,7516,166000,128209,91277,37063,25657,16031,10091,661,308989,348078,657067,421241,139909,93398,1698,147280,830,33670,71746,39484,3989,893.0
85,Bihar,Sitamarhi,26.56570069686413,85.61172491289203,3423574,1803252,1620322,1436794,885188,551606,405714,213624,192090,2989,1585,1404,1114583,865929,248654,2672311,740101,2897,261,253,188,20,7543,39465,66263,3460,42461,807294,49670,856964,733380,394422,196321,136500,92783,70549,11936,1635891,1852765,3488656,2206340,739982,449035,28217,720630,6856,137053,357069,210775,28186,899.0
86,Bihar,Siwan,26.1736372013652,84.33766552901022,3330464,1675090,1655374,1930175,1115906,814269,386685,195965,190720,87000,43472,43528,932416,730396,202020,2712635,608282,2618,369,407,359,86,5708,42384,52935,3834,37833,632514,41858,674372,689880,612635,445257,355277,186817,119164,12091,2421121,1207119,3628240,2115448,713597,498299,3120,535085,6347,42432,191273,203685,107489,988.0
87,Bihar,Supaul,26.28157893772896,86.78496465201461,2229076,1155283,1073793,1033283,647672,385611,354249,182545,171704,10168,5242,4926,877682,551718,325964,1809936,409251,3758,271,136,546,42,5136,12111,51028,1845,25078,572287,27815,600102,467768,269737,157787,99530,69665,45726,5850,1116063,1220268,2336331,1453438,495020,277610,3008,430158,5069,53895,223470,141160,22279,929.0
88,Bihar,Vaishali,25.8134703180212,85.39247597173153,3495021,1844535,1650486,1926740,1152576,774164,738031,387827,350204,2274,1232,1042,1060344,858648,201696,3152346,333980,2203,707,362,246,71,5106,47300,70001,4810,39564,699317,51494,750811,810191,487594,370247,291392,178320,124448,9094,2271286,1479152,3750438,2176701,759132,486032,73156,620927,6879,61912,285265,217871,67578,895.0
89,Chandigarh,Chandigarh,30.7426,76.75872465753424,1055450,580663,474787,805438,465346,340092,199086,106356,92730,0,0,0,404136,328159,75977,852574,51447,8720,138329,1160,1960,246,1014,168344,231204,44283,78113,8911,289456,298367,80406,118667,114209,124707,98786,174528,20188,731491,184265,915756,602411,303748,148945,346,112043,110377,39616,144460,43001,7984,818.0
90,Chhattisgarh,Bastar,19.393866751269048,81.52895126903546,1413199,698487,714712,650863,382335,268528,37963,18815,19148,931780,456841,474939,726531,404364,322167,1277975,12413,27951,2099,985,3466,86925,1385,22075,157646,1782,9042,316425,54894,371319,183667,178766,139330,60936,57413,32895,3227,656234,729550,1385784,864272,358157,189569,1201,287405,13252,54310,161211,81784,9502,1023.0
91,Chhattisgarh,Bilaspur,22.356942982456143,81.99770350877188,381956,192764,189192,287620,155599,132021,98989,50271,48718,10693,5485,5208,205871,111543,94328,371973,6984,236,2387,113,10,7,246,17262,79146,1574,6281,152458,11987,164445,35817,59489,53515,64730,45695,25474,3241,287961,65864,353825,193671,107367,80497,421,75560,4092,10504,46905,18706,4338,981.0
92,Chhattisgarh,Bilaspur,22.356942982456143,81.99770350877188,2663629,1351574,1312055,1596560,932474,664086,552992,281221,271771,498469,248172,250297,1203197,715467,487730,2540763,57973,20745,6373,2979,2357,29122,3317,77727,519704,8566,30892,549632,188174,737806,382091,407692,337793,189296,152838,134637,19654,1624001,943112,2567113,1625484,655032,380114,2999,561313,37623,121345,321189,148587,24774,971.0
93,Chhattisgarh,Dhamtari,20.554912627291245,81.7569195519348,799781,397897,401884,546833,303924,242909,58581,28887,29694,207633,102058,105575,402895,226382,176513,777188,10425,2644,1196,667,3612,3685,364,14568,148926,1016,4804,168689,41792,210481,143128,148544,120146,65196,58875,31319,5096,572304,214637,786941,461125,213021,125429,206,156006,6283,27166,92059,40160,8893,1010.0
94,Chhattisgarh,Durg,21.194463849287164,81.33181639511197,3343872,1682101,1661771,2303378,1284612,1018766,458040,229067,228973,397416,196008,201408,1496805,921729,575076,3129745,83499,24304,24276,19587,17209,42569,2683,129193,614109,16141,51289,533448,349741,883189,463598,573291,497668,309508,286244,202424,30555,2363288,823501,3186789,1919832,898241,523656,2143,582952,74863,103268,375703,172192,41838,988.0
95,Chhattisgarh,Jashpur,22.77286167664669,83.8703962075848,851669,424747,426922,495415,280656,214759,48844,24317,24527,530378,262731,267647,487360,263645,223715,629509,15336,189588,474,467,694,14835,766,6628,76783,567,5755,205670,20722,226392,120768,137681,127299,64188,50562,26161,3166,529825,328438,858263,488965,214455,148100,149,179774,7347,34107,99333,50726,6361,1005.0
96,Chhattisgarh,Korba,22.491712499999995,82.57604326923074,1206640,612915,593725,748759,433391,315368,124679,63446,61233,493559,246323,247236,521186,333329,187857,1133176,30195,21059,3666,897,753,15649,1245,43357,202380,4544,18004,206598,126055,332653,178191,188303,168387,89167,83166,61215,11792,780221,410186,1190407,729708,309479,166959,494,232642,29297,55218,153186,61531,7136,969.0
97,Chhattisgarh,Koriya,23.50412776859501,82.12515636363635,658917,334737,324180,397823,229923,167900,54776,27682,27094,304280,152659,151621,307071,185483,121588,604259,25878,9398,1391,84,1155,15474,1278,25605,80023,1667,7609,121852,59763,181615,143413,109639,87969,47127,38677,26802,4134,457761,179639,637400,399581,165022,94073,241,124298,17842,31952,81771,34136,4216,968.0
98,Chhattisgarh,Mahasamund,21.223727037773354,82.65925427435384,1032754,511967,520787,637963,364089,273874,139581,68968,70613,279896,137339,142557,499260,291858,207402,1008061,12570,5284,2941,521,1495,1417,465,13200,212487,961,5614,274793,35774,310567,179770,194739,152183,78583,57949,33357,5951,702532,384764,1087296,582544,272009,177826,375,241908,7773,55394,143728,50550,6832,1017.0
99,Chhattisgarh,Raigarh,22.008265068493166,83.27797698630134,1493984,750278,743706,951639,542756,408883,224942,112111,112831,505609,250473,255136,690167,429211,260956,1422986,17332,47653,2117,781,409,1782,924,27771,297308,3342,13857,354278,66638,420916,246480,260661,210964,130700,93340,66358,8804,1017307,460166,1477473,841958,398257,253488,281,331942,19805,85832,200941,67366,7525,991.0
100,Chhattisgarh,Raigarh,22.008265068493166,83.27797698630134,2634200,1344345,1289855,1939994,1059692,880302,134952,67980,66972,305125,153657,151468,1072969,753843,319126,2239370,227465,17452,7477,121791,12260,1159,7226,328277,547206,38570,96301,581868,377160,959028,231263,407662,335886,441072,221410,204507,19940,1861740,482420,2344160,1414154,748339,462741,8966,463109,119513,100690,362797,109995,23032,959.0
101,Chhattisgarh,Raipur,20.88603153846152,82.20032759615388,4063872,2048186,2015686,2629749,1493158,1136591,724250,362284,361966,476446,235271,241175,1757664,1099964,657700,3881485,103038,23181,16707,8397,17137,10680,3247,166505,728556,20261,59523,673499,395001,1068500,618508,664470,552373,313247,267265,227382,31483,2674728,1247434,3922162,2454299,1038155,560184,11234,739497,86940,142329,462395,209786,46557,984.0
102,Chhattisgarh,Surguja,23.32719278728607,83.23582493887531,2359886,1193129,1166757,1187941,694686,493255,115652,58281,57371,1300628,652799,647829,1155807,649888,505919,2126195,81442,97432,2303,1287,623,48295,2309,29433,253131,2737,18983,525596,65167,590763,364452,338509,281260,135374,105992,64607,9524,1299718,991866,2291584,1441436,561915,355077,1458,492651,18701,100529,270986,135326,13725,978.0
103,Daman and Diu,Daman,20.431616666666677,72.8392366071429,191173,124659,66514,150348,104316,46032,4262,2224,2038,15240,7702,7538,105521,94502,11019,171537,16087,2618,169,216,244,79,223,25844,49249,1316,4543,10006,61073,71079,8957,28094,30406,26991,14170,9128,1995,119741,20641,140382,122589,52868,15428,288,14722,33493,11608,30398,6389,1297,534.0
104,Daman and Diu,Junagadh,20.72568199498111,70.83985639899612,2743082,1404356,1338726,1842818,1046981,795837,265793,136319,129474,55571,28463,27108,1123709,801859,321850,2397056,334858,2586,1110,1291,3841,77,2263,144561,498326,6628,26991,489237,287506,776743,271762,700258,294811,311849,137505,139957,30127,1886269,669022,2555291,1527888,749156,461650,4388,457405,57119,58186,276859,151329,40300,953.0
105,Goa,North Goa,15.548723418714054,73.80667997909038,818008,416677,401331,663060,351738,311322,17606,8712,8894,56606,27824,28782,327658,239125,88533,622213,57941,134169,618,553,546,166,1802,132612,173951,23440,56266,115859,209230,325089,40968,101521,148792,153887,87513,86781,16601,636063,99538,735601,380926,260533,175035,1514,145651,26362,29113,114062,28595,7315,963.0
106,Goa,South Goa,15.195278658183785,73.941792596877,640537,322463,318074,502427,264085,238342,7843,3915,3928,92669,45124,47545,249590,180411,69179,341664,63623,231961,855,542,563,92,1237,102191,138810,17624,44299,88620,162873,251493,29874,73039,119869,108989,64786,57460,9579,463596,88577,552173,314480,194872,130605,580,108881,29829,24211,90673,23123,5721,986.0
107,Gujarat,Ahmadabad,22.605425564971743,72.23898135593227,7214225,3788051,3426174,5435760,3025463,2410297,759483,399075,360408,89138,47106,42032,2594952,2127547,467405,6042416,883238,50754,14542,4518,209287,2055,7415,965017,1456046,126341,273651,353169,1845383,2198552,761358,1614370,805199,1135058,549188,839295,100831,5805299,1129562,6934861,3952858,2043895,1198152,19320,1193694,269205,182733,880951,349856,81116,904.0
108,Gujarat,Amreli,21.04832649310872,71.43457637825426,1514190,771049,743141,995459,558180,437279,132915,68518,64397,7322,3856,3466,657139,453642,203497,1410463,99105,919,415,243,2053,40,952,80378,273331,2538,12765,313714,116899,430613,230474,412251,120625,149478,66785,50999,8582,1039194,380595,1419789,836343,389892,282409,5546,265928,21529,40657,138082,94707,20625,964.0
109,Gujarat,Anand,22.282718206229863,72.57782051557454,2092745,1087224,1005521,1551253,874481,676772,104465,54476,49989,24824,12761,12063,844794,627561,217233,1798794,250919,29789,1524,267,8591,142,2719,147122,378310,9902,32523,413078,208909,621987,257524,560542,229013,283571,127459,110351,20487,1588947,360506,1949453,1134962,585093,366419,6271,379759,31488,58103,231623,110412,27026,925.0
110,Gujarat,Banas Kantha,24.258538965517253,71.93205252873561,3120506,1610379,1510127,1704923,1048402,656521,327460,169288,158172,284155,144355,139800,1248600,836268,412332,2890305,213505,1686,486,281,12659,83,1501,84832,396873,3424,23149,666773,137424,804197,366867,859436,159433,226765,105372,66950,14451,1799274,1207376,3006650,1984701,738412,394793,2600,515862,33035,45844,260512,207431,47341,938.0
111,Gujarat,Bharuch,21.75787276237761,72.67326346710801,1551019,805707,745312,1118276,623047,495229,62235,31979,30256,488194,250398,237796,627124,468919,158205,1188204,343511,9494,1733,442,4813,342,2480,121542,309091,10257,29531,300677,181319,481996,161675,367060,164765,188539,83895,74380,16036,1056350,273829,1330179,844298,442523,254728,9470,279792,44555,50563,190910,76472,17153,925.0
112,Gujarat,Bhavnagar,21.70219390341736,72.16272632761141,2880365,1490201,1390164,1887255,1087371,799884,157034,80827,76207,9110,4751,4359,1150632,838781,311851,2632574,212863,3457,1410,445,26974,127,2515,171327,500757,7297,28925,387251,356826,744077,422461,929286,266953,281250,96241,93391,13946,2103528,508664,2612192,1708938,720241,445121,6065,467094,61608,65453,253095,177277,46639,933.0
113,Gujarat,Gandhinagar,23.193679790026252,72.67221679790026,1391753,723864,667889,1030494,582686,447808,108608,56919,51689,18204,9711,8493,534976,408075,126901,1319586,57273,3237,1985,497,6405,82,2688,132683,262539,12107,33662,237624,195634,433258,136131,363156,133594,196456,95730,108400,16088,1049555,246993,1296548,769329,391862,224886,5676,234873,41902,37516,163534,71905,14245,923.0
114,Gujarat,Jamnagar,22.410600414263328,69.62062005768233,2160119,1114192,1045927,1396534,795140,601394,173895,89597,84298,24187,12415,11772,847440,646822,200618,1810443,320805,4392,1873,1086,18856,136,2528,142974,386538,11573,30384,347158,299167,646325,255785,491009,194057,199634,74029,87523,18573,1320610,502873,1823483,1220598,576319,358455,4747,354786,56645,53108,225160,117869,28199,939.0
115,Gujarat,Junagadh,20.929523011609785,70.54733890140345,2743082,1404356,1338726,1842818,1046981,795837,265793,136319,129474,55571,28463,27108,1123709,801859,321850,2397056,334858,2586,1110,1291,3841,77,2263,144561,498326,6628,26991,489237,287506,776743,271762,700258,294811,311849,137505,139957,30127,1886269,669022,2555291,1527888,749156,461650,4388,457405,57119,58186,276859,151329,40300,953.0
116,Gujarat,Kachchh,23.48057203301311,68.82192301497916,2092371,1096737,995634,1252319,739239,513080,258859,133224,125635,24228,12825,11403,776228,624704,151524,1608921,442355,6192,6353,490,25312,98,2650,140067,403294,9631,31961,488293,250982,739275,246956,469402,141345,157284,61366,60386,14062,1150801,581952,1732753,1278604,524052,286086,3629,328271,83137,78465,229277,115066,21953,908.0
117,Gujarat,Kheda,22.88765312500002,73.018803515625,2299885,1185727,1114158,1660243,942480,717763,115631,59734,55897,40336,21057,19279,933983,674586,259397,2000884,264482,26629,1403,300,3479,82,2626,99982,372226,5710,24502,461479,160547,622026,295057,641541,250044,310341,148530,84223,19498,1749234,482078,2231312,1260660,628221,388646,22358,429236,22358,61816,244695,127957,27666,940.0
118,Gujarat,Mahesana,23.529355452865065,72.45545194085031,2035064,1056520,978544,1502645,847499,655146,162288,84470,77818,9392,4879,4513,812064,588699,223365,1885732,136431,1954,1082,146,7087,88,2544,180985,385609,7759,33731,476005,183738,659743,260278,467128,183468,266108,139208,130723,27391,1474304,434497,1908801,1119451,554432,357578,3603,371860,43193,59628,232736,114271,19272,926.0
119,Gujarat,Narmada,21.70666386292833,73.68403208722742,590297,301086,289211,370336,211767,158569,8733,4465,4268,481392,244524,236868,294795,174282,120513,559848,22600,4413,147,80,373,2078,758,12997,101940,576,4081,138121,22248,160369,76197,146661,58188,52687,28396,14748,3451,380328,192780,573108,336830,157910,93466,2091,115602,4801,19329,62416,34560,5734,961.0
120,Gujarat,Navsari,20.866973318871995,72.86184869848157,1329672,678165,651507,1001909,539471,462438,35464,17959,17505,639659,319740,319919,591834,407881,183953,1225087,78669,5733,2459,601,13386,2823,914,114620,267679,6726,24397,267739,141417,409156,145678,266733,140235,190861,112460,85041,26012,967020,261956,1228976,673014,390349,258957,7352,262571,25882,43365,177608,61357,11846,961.0
121,Gujarat,Panch Mahals,22.80435606837605,73.61984598290586,2390776,1226961,1163815,1440805,858054,582751,100446,51278,49168,721604,368348,353256,1097507,673565,423942,2220974,158513,2863,662,337,5236,131,2060,59096,398937,3456,19753,463363,104238,567601,255905,601358,205420,283648,139773,71810,17958,1575872,781582,2357454,1421859,599925,363391,5601,425072,15044,53952,206091,145983,40720,949.0
122,Gujarat,Patan,23.80634198473284,71.75162977099237,1343734,694397,649337,837913,494631,343282,123408,64190,59218,13303,6835,6468,554830,383074,171756,1194745,142797,916,337,66,3602,66,1205,66310,223424,2231,12870,301483,102655,404138,168990,364667,78731,129584,57494,46355,11111,856932,452891,1309823,786357,341381,213465,2531,245138,19197,35081,135333,83195,15565,935.0
123,Gujarat,Porbandar,21.55092351651571,69.71896987722886,585449,300209,285240,393678,221621,172057,51830,26607,25223,13039,6730,6309,231169,174118,57051,549749,33565,500,248,91,515,38,743,41686,117040,1653,5639,96015,87557,183572,50588,150643,71637,63458,25119,22458,5260,389163,137119,526282,314886,163777,105638,1148,103353,16208,17436,71173,30207,5953,950.0
124,Gujarat,Rajkot,22.40603377715488,70.83679439383323,3804558,1974445,1830113,2725056,1514075,1210981,290169,149782,140387,24017,12504,11513,1479050,1159480,319570,3397406,361388,5478,1918,1170,33591,269,3338,362140,747352,21785,67370,459474,721532,1181006,383780,913928,402240,540278,204306,266295,29924,2740751,738660,3479411,2080568,1052871,659576,11543,644828,111779,94572,446694,199955,41410,927.0
125,Gujarat,Sabar Kantha,23.71803594548552,73.13638790459964,2428589,1244231,1184358,1578734,918625,660109,187685,96527,91158,542156,272531,269625,1084878,681435,403443,2260560,148563,6375,614,168,11110,52,1147,99037,438606,5262,25425,544024,121509,665533,214062,597667,211423,333650,198963,110817,24745,1691327,665058,2356385,1393131,630963,400905,3590,450063,22065,56824,247442,145124,29107,952.0
126,Gujarat,Surat,21.25761372772093,72.93488716344339,6081322,3402224,2679098,4571410,2687468,1883942,158115,82202,75913,856952,432089,424863,2553542,2142819,410723,5260193,660772,21052,5703,12902,112835,3920,3945,815423,1252452,55694,149331,369840,1529998,1899838,566242,1332690,807021,896927,433651,379505,79862,4495898,942150,5438048,3563443,1740746,723415,53718,788508,478407,174440,788695,276610,59925,787.0
127,Gujarat,Surendranagar,22.82672007299272,71.48358740875906,1756268,909917,846351,1093626,643221,450405,179461,93427,86034,21453,11068,10385,723500,504038,219462,1620282,109681,1419,512,312,22992,128,942,77857,302068,2975,15309,340788,159810,500598,234873,482679,165406,172947,61164,58389,14501,1189959,493427,1683386,1033435,439352,280582,2899,306924,26468,46527,166727,105628,23455,930.0
128,Gujarat,The Dangs,20.801633877551023,73.6883518367347,228291,113821,114470,140968,77314,63654,992,490,502,216073,107539,108534,118257,61329,56928,203545,3593,20029,69,32,39,560,424,2029,29794,137,1393,52102,7516,59618,43639,59954,17736,14872,7560,3490,2215,149466,91160,240626,146095,51821,30027,348,46314,1291,5366,21667,17224,4191,1006.0
129,Gujarat,Vadodara,22.26133739279589,73.49433010291594,4165626,2153736,2011890,2893080,1614087,1278993,221629,114602,107027,1149901,586665,563236,1693473,1233312,460161,3713941,384579,23813,9340,2069,27650,1124,3110,411734,798277,53606,117818,547454,692971,1240425,396624,865726,457662,504732,268451,314960,60177,2868332,910219,3778551,2213474,1190041,733710,28401,771779,88479,122649,502358,206020,49094,934.0
130,Gujarat,Valsad,20.44238231644259,72.9148584798345,1705678,887222,818456,1170657,655528,515129,38237,19557,18680,902794,450976,451818,743245,516188,227057,1571147,94034,19661,1589,913,13809,1417,3108,137209,329218,11020,31285,262410,235981,498391,165459,303197,171712,212318,123281,90912,26987,1093866,405928,1499794,944532,485874,259906,15366,297911,58586,50956,208732,84074,18166,922.0
131,Haryana,Ambala,30.3503672316384,76.94970310734456,1128350,598703,529647,818025,461288,356737,296246,156874,139372,0,0,0,372139,320120,52019,955096,22143,3705,138202,381,4845,110,3868,121622,199681,12899,32767,175365,139891,315256,89558,170110,161844,163544,97980,91472,18727,793235,222031,1015266,617859,308126,201685,680,183898,18611,18758,120894,54266,14153,885.0
132,Haryana,Bhiwani,28.728868064516128,76.02110225806452,1634445,866672,767773,1069871,643158,426713,341162,181475,159687,0,0,0,623006,430678,192328,1611031,15515,873,2401,254,1016,26,3329,88938,266244,5292,25236,357047,99235,456282,186145,223049,198307,218631,148995,104875,13786,1093788,459364,1553152,964960,405760,261428,2297,293443,11408,21776,175604,88960,22472,886.0
133,Haryana,Faridabad,28.14873109756098,77.32718536585368,1809733,966110,843623,1272739,734940,537799,223799,119495,104304,0,0,0,579229,476933,102296,1588407,161680,9743,34572,640,4883,249,9559,258422,333171,43437,82673,87700,382981,470681,137902,220384,198551,282666,178846,259933,27864,1306146,346567,1652713,1095602,481318,231029,1784,276186,69917,34713,201457,94686,22210,873.0
134,Haryana,Fatehabad,29.57298318584072,75.54608716814157,942011,495360,446651,557578,327471,230107,284357,149111,135246,0,0,0,369083,263498,105585,779243,8360,996,150969,171,1172,530,570,51693,153301,3210,13142,203020,55360,258380,103541,136663,99948,93526,61476,37741,9504,542399,344534,886933,555745,237009,147469,1788,162708,8832,12757,99951,51558,11828,902.0
135,Haryana,Gurgaon,28.043894789579163,77.01935130260523,1514432,816690,697742,1111116,638666,472450,197937,104332,93605,0,0,0,544716,432456,112260,1408801,70842,9725,15097,944,7451,254,1318,238359,305751,67087,102343,141703,381988,523691,126920,177453,175370,219200,150120,233402,41366,1123831,263720,1387551,875531,428101,210307,493,211728,98060,48612,189075,66325,16630,854.0
136,Haryana,Hisar,29.23628731117825,75.84324682779452,1743931,931562,812369,1114311,670200,444111,408785,217338,191447,0,0,0,691621,488321,203300,1701061,21650,1945,12270,334,3620,33,3018,110495,285004,10132,33400,302013,154113,456126,197303,230074,194595,202792,144626,105346,19031,1093767,505251,1599018,1017830,456536,265109,4456,295628,23078,22962,188751,91914,21419,872.0
137,Haryana,Jhajjar,28.59651868131869,76.61137142857145,958405,514667,443738,676091,399480,276611,170448,90856,79592,0,0,0,326534,250020,76514,945693,8247,734,1042,105,645,22,1917,70149,168558,5034,19241,211816,78328,290144,90737,109829,115794,145258,97457,58826,9387,627288,201028,828316,549975,245095,162356,979,168223,12154,13891,105616,50636,13257,862.0
138,Haryana,Jind,29.45149821958457,76.29598575667653,1334152,713006,621146,832758,502049,330709,282351,150940,131411,0,0,0,523422,368277,155145,1276669,23016,889,29103,172,2594,56,1653,78386,222462,5263,23750,278335,89665,368000,136892,185626,151682,154773,107994,64599,14277,815843,419624,1235467,784085,335704,213478,885,227870,12316,17274,134056,73299,19953,871.0
139,Haryana,Kaithal,29.96068539094649,76.37698930041155,1074304,571003,503301,646529,385782,260747,247513,131486,116027,0,0,0,373899,292696,81203,974520,8232,1769,87558,265,351,70,1539,62668,187349,3724,15301,231091,75696,306787,119345,158239,124682,117753,82297,51043,9111,662470,369869,1032339,630194,265813,176320,1977,189832,7550,15118,111504,59344,14255,881.0
140,Haryana,Karnal,29.703200647249204,76.87488025889972,1505324,797712,707612,978013,564516,413497,339604,179681,159923,0,0,0,516062,411646,104416,1341002,31650,2049,126207,532,1516,49,2319,143133,267223,11163,29253,292682,135920,428602,155839,231354,188040,183590,124790,101387,19186,1004186,429220,1433406,884972,380409,234684,5259,258981,19328,23222,161777,81876,17676,887.0
141,Haryana,Kurukshetra,30.05652659846548,76.78774680306903,964655,510976,453679,646893,370828,276065,215128,113311,101817,0,0,0,336780,268556,68224,805175,15970,1943,140395,214,375,106,477,90150,171908,7356,21951,203553,88268,291821,94530,145392,118107,120790,81964,71007,10999,642789,266638,909427,552034,250830,160216,1575,162147,13063,14688,104115,48824,11764,888.0
142,Haryana,Mahendragarh,28.1352161458333,76.14018072916659,922088,486665,435423,630255,380440,249815,156314,82420,73894,0,0,0,338584,232935,105649,913251,5660,301,1737,75,644,15,405,45359,135455,2624,13908,223726,44216,267942,94273,135849,126291,132765,94245,60296,10353,654072,245602,899674,530000,229392,161258,1438,162961,3691,11918,91491,49530,15586,895.0
143,Haryana,Panchkula,30.700897142857134,76.97173238095236,561293,299679,261614,405318,229862,175456,101830,53868,47962,0,0,0,211479,164865,46614,490702,23451,2583,40951,1008,1626,90,882,69687,103455,18615,32174,70895,93656,164551,45607,73584,60177,69163,48306,83256,8466,388559,119222,507781,309078,157076,93606,1533,78722,24115,13157,65612,25585,5882,873.0
144,Haryana,Panipat,29.34352134146342,76.92895914634147,1205437,646857,558580,786599,464136,322463,206213,109695,96518,0,0,0,412318,328667,83651,1083936,86622,2261,25064,289,4647,99,2519,121846,209965,10024,26719,173502,153804,327306,118873,170565,143466,141473,91756,75774,10977,752884,296212,1049096,739075,298764,167244,354,182191,32473,17992,123573,65067,13756,864.0
145,Haryana,Rewari,28.19164714828897,76.55956007604564,900332,474335,425997,636947,375453,261494,182606,95571,87035,0,0,0,337727,235326,102401,889133,5713,701,1804,202,1525,12,1242,62667,152651,5121,18092,199449,69305,268754,81280,120860,122617,139646,95807,65143,9820,635173,206827,842000,518747,230704,150557,324,156650,9969,14103,97233,45917,11875,898.0
146,Haryana,Rohtak,28.892517647058817,76.53123235294117,1061204,568479,492725,747582,436025,311557,216889,115573,101316,0,0,0,345967,272646,73321,1043887,8185,732,3916,200,3491,24,769,94633,193120,8482,27225,175203,131739,306942,117097,150903,140782,168499,109596,100346,21134,808357,248795,1057152,605741,269354,185685,424,185204,15541,15759,118044,55628,13502,867.0
147,Haryana,Sirsa,29.63583446327684,74.90970480225988,1295189,682582,612607,782897,456968,325929,387381,202430,184951,0,0,0,502003,369462,132541,940255,9524,2186,338962,370,2256,624,1012,70538,215527,6287,22706,245476,93316,338792,141766,201349,153263,134559,83373,61620,16698,792628,412353,1204981,750228,334344,208185,2432,219428,12951,17328,135060,70339,17490,897.0
148,Himachal Pradesh,Bilaspur,31.3780422907489,76.65316079295157,381956,192764,189192,287620,155599,132021,98989,50271,48718,10693,5485,5208,205871,111543,94328,371973,6984,236,2387,113,10,7,246,17262,79146,1574,6281,152458,11987,164445,35817,59489,53515,64730,45695,25474,3241,287961,65864,353825,193671,107367,80497,421,75560,4092,10504,46905,18706,4338,981.0
149,Himachal Pradesh,Bilaspur,31.3780422907489,76.65316079295157,2663629,1351574,1312055,1596560,932474,664086,552992,281221,271771,498469,248172,250297,1203197,715467,487730,2540763,57973,20745,6373,2979,2357,29122,3317,77727,519704,8566,30892,549632,188174,737806,382091,407692,337793,189296,152838,134637,19654,1624001,943112,2567113,1625484,655032,380114,2999,561313,37623,121345,321189,148587,24774,971.0
150,Himachal Pradesh,Chamba,32.66741814595661,76.39354063116366,519080,261320,257760,323842,186064,137778,111690,56154,55536,135500,67900,67600,294035,158791,135244,479782,32455,1559,2745,1740,57,14,728,21458,96082,1615,5117,186395,13836,200231,56272,96789,67653,64515,40440,15506,3252,344427,154575,499002,306555,130606,81566,353,94367,6546,11994,52526,31977,5475,986.0
151,Himachal Pradesh,Hamirpur,31.67668481012659,76.49767088607594,454768,217070,237698,358091,180555,177536,109256,53727,55529,3044,1531,1513,241931,118724,123207,449412,3711,243,591,95,293,9,414,34978,104120,2521,7525,196116,15232,211348,37327,71107,72114,91184,64363,35620,5263,376978,72551,449529,224044,123941,106641,142,99538,4452,17767,64353,19251,3697,1095.0
152,Himachal Pradesh,Hamirpur,31.67668481012659,76.49767088607594,1104285,593537,510748,653299,408125,245174,241198,130269,110929,474,259,215,443655,308527,135128,1010014,91269,814,196,74,41,273,1604,20175,55929,1196,11037,256081,55300,311381,159593,238344,211029,103334,59914,59612,4094,835920,364848,1200768,660774,260368,181109,2034,202503,4809,25110,88512,73892,22044,861.0
153,Himachal Pradesh,Kangra,32.14093603238864,76.41205910931173,1510075,750591,759484,1152640,606443,546197,319385,159697,159688,84564,41745,42819,675170,403756,271414,1461140,19797,3023,8929,14511,194,208,2273,148361,330081,8053,22753,588321,39007,627328,127699,243617,223099,284124,192936,91236,13577,1176288,271892,1448180,766581,419172,319420,4902,314828,16832,44900,213017,68294,10196,1012.0
154,Himachal Pradesh,Kinnaur,31.60667184065933,78.51613736263741,84121,46249,37872,60699,36697,24002,14750,7433,7317,48746,23609,25137,56273,33863,22410,64732,448,485,249,18086,29,45,47,10740,17865,354,2563,44514,0,44514,9400,13749,11437,11140,7871,5118,713,59428,16944,76372,42360,26599,15075,87,13926,4511,5725,9423,3758,629,819.0
155,Himachal Pradesh,Kullu,31.90911922077925,77.40922649350647,437903,225452,212451,307672,174550,133122,122659,62686,59973,16822,8493,8329,269084,148829,120255,415669,2974,1568,1396,15377,94,83,742,40064,91322,2623,7010,167995,20709,188704,48384,77363,61854,58122,39081,23168,2377,310349,103136,413485,244727,120510,72282,384,80610,12616,15132,53737,22985,3691,942.0
156,Himachal Pradesh,Mandi,31.635805940594054,76.96556930693067,999777,498065,501712,723747,393669,330078,293739,147250,146489,12787,6345,6442,572671,297464,275207,981412,9460,876,4081,2628,43,86,1191,59324,214491,5333,16401,431129,31696,462825,100052,159043,132147,180188,128549,54139,9350,763468,218570,982038,524285,279321,194661,1510,205510,11024,31574,130468,48770,9182,1007.0
157,Himachal Pradesh,Shimla,31.155725451807253,77.62573042168668,814010,425039,388971,612642,342846,269796,215777,110828,104949,8755,4554,4201,430926,258628,172298,791449,11810,2025,4047,3262,185,197,1035,108888,172754,9177,24127,279269,95896,375165,69967,113536,113305,141490,95341,80414,9748,623801,137576,761377,425721,241956,145577,756,126522,44241,33411,102290,37051,8018,915.0
158,Himachal Pradesh,Sirmaur,30.682764453961443,77.43184689507493,529855,276289,253566,362645,205617,157028,160745,83017,77728,11262,5912,5350,280083,169399,110684,476830,33215,577,15501,2645,236,86,765,28904,91509,2220,8593,171102,21054,192156,57853,100123,78103,67080,38282,23352,4048,368841,140486,509327,310244,136839,82471,301,83947,10156,10862,47460,29490,9278,918.0
159,Himachal Pradesh,Solan,31.03864311926604,76.94442140672783,580320,308754,271566,428578,244372,184206,164536,85482,79054,25645,13351,12294,298737,190001,108736,548579,14678,1452,13926,574,591,110,410,53722,119866,5250,14478,192787,51509,244296,50331,89407,83992,95232,59363,36803,8280,423408,104084,527492,321533,167168,90808,811,86649,31305,20126,68774,27001,7452,880.0
160,Himachal Pradesh,Una,31.58330388349513,76.18353932038836,521173,263692,257481,399715,213281,186434,115491,58601,56890,8601,4445,4156,215346,141612,73734,480138,14275,390,26009,56,70,10,225,43809,105929,2412,8238,185091,20126,205217,51838,87913,81256,105204,60626,32120,5511,424468,87735,512203,273223,142351,105358,241,101443,5195,12478,65541,26829,4851,976.0
161,Jammu and Kashmir,Doda,33.359614675767915,76.07163720136518,409936,213641,196295,219083,138620,80463,53408,27209,26199,39216,20377,18839,151912,101144,50768,187621,220614,472,422,21,22,42,722,7963,61831,596,3077,122267,11350,133617,43794,47350,62719,48359,31416,12647,1846,248131,163565,411696,263576,93189,52744,427,76189,1997,8264,40819,25349,4188,919.0
162,Jammu and Kashmir,Jammu,32.713199095022645,74.8477520361991,1529958,813821,716137,1137135,641916,495219,377991,197610,180381,69193,36323,32870,508622,417456,91166,1289240,107489,12104,114272,470,1987,321,4075,197168,294739,19905,46657,254566,248043,502609,135391,185962,253542,261852,159257,146501,30616,1173121,268279,1441400,816827,435895,275585,1651,274859,18255,26422,193158,68820,13616,880.0
163,Jammu and Kashmir,Kargil,33.565994894894914,76.63675315315312,140802,77785,63017,86236,56301,29935,18,12,6,122336,62652,59684,51873,39839,12034,10341,108239,604,1171,20126,28,4,289,3285,15824,235,1005,40370,7774,48144,12732,19083,20874,16938,9826,3077,408,82938,39854,122792,87532,35561,17488,221,16646,1419,1523,4991,6832,4866,810.0
164,Jammu and Kashmir,Kathua,32.51781678321678,75.58901398601404,616435,326109,290326,389204,228499,160705,141224,74644,66580,53307,27693,25614,200431,161548,38883,540063,64234,1828,9551,24,16,2,717,32772,109422,1443,6112,181374,33473,214847,69396,82715,106411,91522,47694,24330,4504,426572,181297,607869,357864,160123,97684,764,114949,2179,9870,67133,33057,7776,890.0
165,Jammu and Kashmir,Pulwama,33.88414418604652,75.00921860465118,560440,293064,267376,293958,178326,115632,402,397,5,22607,11837,10770,188420,138428,49992,13840,535159,1109,9440,35,6,18,833,16828,73629,1537,5293,147520,21703,169223,36201,54808,73991,67368,40931,31286,5897,310482,190369,500851,342601,137032,80111,696,80452,459,2996,32942,31436,13867,912.0
166,Jammu and Kashmir,Punch,33.791241290322574,74.29593161290322,476835,251899,224936,261724,163333,98391,556,406,150,176101,90274,85827,161393,117677,43716,32604,431279,958,11188,83,10,2,711,13160,62900,346,3342,132139,15269,147408,55762,72024,69219,46062,29517,13962,1884,288430,164044,452474,304979,109818,61334,704,87711,762,8966,44517,31443,3952,893.0
167,Jammu and Kashmir,Srinagar,34.27312898550724,75.11021159420288,1236829,651124,585705,748584,431746,316838,1068,995,73,8935,5021,3914,407188,333151,74037,42540,1177342,2746,12187,285,74,2,1653,138119,165403,16413,33831,4518,257721,262239,88911,173309,178723,176409,132727,121856,32114,904049,310225,1214274,693238,351561,190330,1700,160923,5135,8952,94928,49622,13946,900.0
168,Jammu and Kashmir,Udhampur,33.04770670731707,75.15286951219511,554985,296784,258201,322354,197543,124811,138569,72093,66476,56309,29142,27167,243672,163845,79827,489044,59771,1962,3418,106,57,235,392,20008,73999,1214,5744,148664,34696,183360,58567,80129,86008,55024,29657,17345,4030,330760,194838,525598,339145,140785,74757,298,90329,2544,6729,47101,31098,8634,870.0
169,Jharkhand,Bokaro,23.6814965034965,85.98398374125864,2062330,1072807,989523,1273520,759088,514432,299227,154297,144930,255626,129233,126393,685368,507677,177691,1636460,241451,13730,4174,1890,2045,160524,2056,67157,274726,9754,37997,250312,258452,508764,242467,338861,342646,232434,154076,116396,21157,1448037,595924,2043961,1261238,510375,282115,8602,292464,67373,39306,203702,119534,28896,922.0
170,Jharkhand,Chatra,24.11619945750453,84.93295804701627,1042886,533935,508951,510061,303902,206159,340553,172668,167885,45563,23141,22422,397690,251213,146477,903179,116710,6565,888,35,129,12936,2444,5307,27037,590,9115,200974,14528,215502,200861,161729,102033,63670,35342,21697,2046,587378,467975,1055353,692650,222892,126682,662,176487,2533,17012,75131,68464,20305,953.0
171,Jharkhand,Deoghar,24.33070100755672,86.75697632241814,1492073,775022,717051,793538,489837,303701,190036,98295,91741,180962,91012,89950,551467,383691,167776,1165140,302626,6027,143,188,282,16067,1600,26760,130193,1944,13550,257373,64337,321710,217460,266292,190171,96331,54419,43979,6699,875351,635544,1510895,944961,338413,205514,3185,249689,7201,22703,122204,85691,29718,925.0
172,Jharkhand,Dhanbad,23.854509090909097,86.40372924901185,2684487,1405956,1278531,1722204,1014950,707254,437309,226362,210947,233119,117256,115863,844504,658851,185653,2149480,431762,11243,9727,331,1268,77182,3494,83995,427173,11568,46646,258764,405455,664219,317918,501453,449506,305054,186697,107382,14615,1882625,662522,2545147,1634835,648876,356445,44331,359496,76629,48335,254604,153679,42561,909.0
173,Jharkhand,Dumka,24.275006125574265,87.27662450229711,1321442,668514,652928,672409,406275,266134,79614,40802,38812,571077,282125,288952,624779,367108,257671,1044726,106865,86404,234,267,162,78622,4162,11836,62110,1193,10396,303697,23281,326978,229157,229259,149009,69525,38383,25593,2697,743623,601078,1344701,799323,324226,196164,1729,267228,3967,37071,147147,76605,12102,977.0
174,Jharkhand,Garhwa,24.082114689265527,83.68664265536722,1322784,683575,639209,653476,405161,248315,319946,165313,154633,205874,104499,101375,571431,335451,235980,1104475,194680,17168,123,371,20,4591,1356,6798,29373,565,8881,272872,19180,292052,207665,195565,147446,87844,46882,28144,2830,716376,557852,1274228,860869,284036,177599,280,250350,2997,32063,117461,88464,16722,935.0
175,Jharkhand,Giridih,24.30578509874329,86.08710915619386,2445474,1258098,1187376,1253475,783736,469739,325493,166447,159046,238188,120646,117542,1036277,623946,412331,1856202,508586,14645,937,650,1503,59218,3733,16909,125431,1944,19976,452564,46886,499450,503261,443980,261309,146464,77540,55122,8449,1496125,1047685,2543810,1597269,533788,312967,1450,381432,6860,27587,156347,146041,61473,944.0
176,Jharkhand,Godda,24.8189,87.2941735483871,1313551,677927,635624,604519,376212,228307,115567,59835,55732,279208,138510,140698,552191,344019,208172,937126,289182,37795,97,128,115,47067,2041,7421,43230,874,11925,276454,15576,292030,217607,190777,126766,79430,47395,30870,4002,696847,653464,1350311,820367,308639,183519,1026,245973,2288,30015,123999,79584,17420,938.0
177,Jharkhand,Gumla,23.078532948929148,84.55056787479396,1025213,514390,510823,559720,321795,237925,32459,16446,16013,706754,352514,354240,487508,264774,222734,309563,51429,202449,221,531,23,457468,3529,9108,31687,831,7807,216629,16445,233074,136719,242580,182260,82114,45613,23742,2913,715941,322119,1038060,643579,225871,155452,311,179247,7713,19433,81595,69063,18758,993.0
178,Jharkhand,Jamtara,23.97873318077801,86.95325080091534,791042,404830,386212,426312,258260,168052,72885,37212,35673,240489,120035,120454,326631,214740,111891,550560,164406,4419,520,118,783,68564,1672,5564,49419,808,4959,165555,20113,185668,131150,132014,85745,40613,22995,14802,1578,428897,366012,794909,480895,189889,116810,3448,145904,3164,16551,76917,43706,12929,954.0
179,Jharkhand,Latehar,23.72511185840708,84.48298743362837,726978,369666,357312,350682,209706,140976,154910,78266,76644,331096,166427,164669,313379,180106,133273,473049,69808,47653,120,128,16,133525,2679,2177,38194,340,6240,146377,14137,160514,109491,121529,88787,46142,23885,13956,1017,404807,349277,754084,484084,152720,89870,304,127924,3721,13523,58080,50469,10613,967.0
180,Jharkhand,Lohardaga,23.488796043165483,84.6605169064748,461790,232629,229161,259707,149568,110139,15330,7862,7468,262734,130814,131920,221332,121605,99727,112378,95012,16770,51,33,15,235987,1544,8016,28769,351,2954,96759,14725,111484,82873,84920,63545,38503,21987,13847,976,306651,188323,494974,298844,100340,62244,362,87210,2967,9611,41588,32787,7316,985.0
181,Jharkhand,Pakur,24.57260428082189,87.69691969178076,900422,452661,447761,352881,206989,145892,28469,14352,14117,379054,186967,192087,404584,234012,170572,410127,322963,75865,356,283,222,88760,1846,5316,31414,328,4535,200588,16587,217175,100367,133770,79045,29934,15700,9822,1525,370163,548434,918597,587976,206826,104418,1202,175835,2847,24424,93405,52332,10417,989.0
182,Jharkhand,Palamu,24.196925968109337,84.20310842824594,1939869,1006302,933567,1024563,621706,402857,536382,277119,259263,181208,92577,88631,713175,473042,240133,1683169,238295,6164,734,188,284,5681,5354,17270,68238,2155,19981,355529,52375,407904,303053,296937,231565,160964,100290,63595,7117,1163521,803424,1966945,1244572,425668,268387,1242,346286,6419,37735,163115,125041,29624,928.0
183,Jharkhand,Ranchi,23.184235061391547,85.31781937244203,2914253,1494937,1419316,1911433,1085244,826189,152943,78613,74330,1042016,520582,521434,1142867,743967,398900,1612239,410759,193974,4826,932,2733,677445,11345,164237,350908,22538,76565,420740,310242,730982,361522,547583,495515,370847,247237,195181,28424,2246309,613855,2860164,1742293,725938,409166,36856,461581,79680,56328,294024,167822,38615,949.0
184,Jharkhand,Sahibganj,24.93667989690721,87.68264097938142,1150567,589391,561176,483263,287303,195960,72341,37317,35024,308343,153435,154908,490202,295690,194512,628044,398243,83208,198,245,125,38426,2078,11545,34879,591,9563,223450,37543,260993,146399,171416,110822,52248,28087,19832,2593,531397,637296,1168693,745027,261849,137727,5964,217420,4553,27770,112655,70027,14065,952.0
185,Jharkhand,Simdega,22.608760391198054,84.59193691931536,599578,300309,299269,343483,191991,151492,44674,22150,22524,424407,211546,212861,288645,159867,128778,201524,15103,306601,51,753,114,73930,1502,3472,16865,423,4649,144169,11114,155283,82317,130068,97580,47836,24842,13674,1197,397514,191341,588855,357859,143560,97817,342,111052,4279,15033,55943,38718,6912,997.0
186,Karnataka,Bagalkot,16.15860676328503,75.64526070853468,1889752,950111,939641,1113412,641388,472024,319149,158135,161014,97203,48470,48733,818081,511575,306506,1634229,219991,3433,443,412,25198,166,5880,49345,301389,3745,26297,324799,165858,490657,242336,385986,147397,171505,115095,82319,25791,1170429,608843,1779272,1123443,465706,299774,829,287059,54451,42474,183541,95192,34170,989.0
187,Karnataka,Bangalore Rural,12.936827087794448,77.47369314775169,990923,509172,481751,688749,385311,303438,213700,107424,106276,52903,27147,25756,459891,315499,144392,890429,92252,5368,389,272,1045,85,1083,77454,214253,3729,17066,231052,95410,326462,100770,168165,126285,166677,82235,51015,10741,705888,205062,910950,535765,278153,176083,922,163974,55447,32919,144124,39473,8229,946.0
188,Karnataka,Belgaum,16.16107219152853,74.72329042357275,4779661,2423063,2356598,3052032,1725548,1326484,577418,289096,288322,297198,148673,148525,2105668,1372422,733246,4038331,528412,18418,2037,1086,178310,149,12918,240742,808827,17560,73497,962777,356198,1318975,544564,1057297,609600,532584,279583,201884,56621,3282133,1346776,4628909,2669348,1251116,857143,2054,811672,126662,119801,550977,226927,66120,973.0
189,Karnataka,Bellary,15.074377548209377,76.47228471074374,2452595,1236954,1215641,1421621,813440,608181,517409,258582,258827,451406,225451,225955,1116880,703258,413622,2103633,320834,14014,1029,284,8044,54,4703,114040,440374,9626,40190,371604,251876,623480,275785,529576,219702,203139,121453,89475,29367,1468497,787762,2256259,1487013,617276,346905,1401,366781,102920,52024,267798,127026,34856,983.0
190,Karnataka,Bidar,17.950361730769224,77.19459961538459,1703300,870665,832635,1042673,597198,445475,399785,204280,195505,235822,119787,116035,702608,459050,243558,1289709,335184,35438,1145,30453,680,521,10170,34924,271439,3971,36072,287134,102269,389403,188998,474921,194233,181076,105347,54900,12885,1212360,515395,1727755,1018195,397120,287271,714,278386,30830,30167,150730,107588,25036,956.0
191,Karnataka,Bijapur,16.84015316666667,75.95909166666665,255230,128663,126567,86919,54076,32843,10122,5145,4977,204189,101519,102670,134525,71591,62934,245151,1617,2709,68,1649,15,3793,228,1022,12516,117,1462,50449,7942,58391,25597,22787,14170,7192,6755,3421,147,80069,163278,243347,167348,63802,23927,153,47682,1846,8837,25936,13973,1656,984.0
192,Karnataka,Bijapur,16.84015316666667,75.95909166666665,2177331,1111022,1066309,1248268,730566,517702,442773,226440,216333,39314,19912,19402,927722,580111,347611,1786830,369588,2433,558,374,8665,499,8384,58890,326594,4987,36571,396449,131041,527490,246391,430477,143199,182756,129109,96990,24569,1253491,746979,2000470,1295274,527085,353549,1423,338321,55083,41669,202950,121864,38593,960.0
193,Karnataka,Chikmagalur,13.425288289676422,75.67626502311249,1137961,566622,571339,818345,438257,380088,253651,125016,128635,44970,21990,22980,565774,357889,207885,1004553,101235,26000,182,109,4710,4,1168,74534,238505,4510,18727,311660,80766,392426,114570,257550,160083,177585,96470,72420,12631,891309,204371,1095680,564994,341380,230864,723,216586,41283,40291,182344,42270,7268,1008.0
194,Karnataka,Chitradurga,14.29102220394736,76.57821957236843,1659456,840843,818613,1087392,607188,480204,389117,196819,192298,302554,152939,149615,856587,513311,343276,1520553,128751,3175,322,84,3778,128,2665,60522,307257,5711,28897,349704,97644,447348,188329,332648,196470,217567,132435,75262,22078,1164789,452975,1617764,891230,460057,306412,1757,298987,46758,40589,213641,81805,18108,974.0
195,Karnataka,Davanagere,14.330414586709884,75.91723841166937,1945497,986400,959097,1308540,720637,587903,392595,198299,194296,233112,117808,115304,875207,585639,289568,1658465,265805,5420,307,164,6417,1743,7176,100812,372671,7320,39416,354680,176011,530691,242130,446793,206686,269748,154781,123863,32375,1476376,467414,1943790,1068518,538551,336173,2255,320621,73448,42195,249307,89741,23597,972.0
196,Karnataka,Dharwad,15.343831376975173,75.13831264108359,1847023,937206,909817,1301664,711776,589888,177855,89137,88718,87548,44173,43375,784833,543776,241057,1390020,386834,28747,1486,715,29037,2748,7436,140584,347962,15013,49585,199707,283397,483104,252596,383041,185530,227113,143453,137768,34302,1363803,428556,1792359,1017935,505688,322577,823,275419,87134,44413,223035,79875,24731,971.0
197,Karnataka,Gadag,15.507128256880746,75.64861302752298,1064570,537147,527423,700177,397178,302999,174196,87745,86451,61654,30975,30679,495722,310412,185310,907750,143665,3432,231,79,5993,74,3346,31959,198064,3373,15625,180066,111906,291972,121615,244640,112703,105150,63816,42053,12822,702799,306138,1008937,601578,279069,183409,514,175742,32788,27127,121985,51064,15426,982.0
198,Karnataka,Gulbarga,17.070459515951594,76.87503850385033,2566326,1301755,1264571,1427368,828359,599009,648782,330091,318691,65259,32830,32429,1087028,680001,407027,2011014,513125,8344,826,9589,4865,330,18233,77334,404767,9752,52483,400704,199303,600007,177860,579057,270622,290570,153746,104256,20492,1596603,883704,2480307,1570719,604665,388935,2007,378218,79335,45331,217746,158370,43798,971.0
199,Karnataka,Hassan,12.945098749999998,76.11049549999997,1776421,883667,892754,1225256,668836,556420,345031,169961,175070,32329,15986,16343,903580,560452,343128,1630814,120011,15611,289,623,5820,3,3250,90599,400702,4851,23444,496103,132878,628981,182255,354480,232531,292369,147837,103152,27774,1340398,401227,1741625,877340,522039,375918,1124,363138,57085,62835,290412,67234,8811,1010.0
200,Karnataka,Haveri,14.737582809224318,75.3961230607966,1597668,819128,778540,1085443,603793,481650,219976,112212,107764,141380,72109,69271,730066,490731,239335,1281878,297927,2406,419,68,9834,702,4434,41517,295937,2456,17819,315076,98488,413564,240925,430529,201965,158442,84357,55310,16830,1188358,383494,1571852,904453,426094,266586,535,280133,37221,35646,195266,75502,19042,950.0
201,Karnataka,Kodagu,12.39684468085106,75.79336595744688,554519,274608,279911,412877,215302,197575,73584,35759,37825,58054,28510,29544,278938,172100,106838,448986,87274,17130,139,126,250,220,394,40958,113931,3308,10758,181182,31792,212974,51287,111562,75291,86232,54939,43225,8251,430787,91352,522139,276918,163360,113919,322,93366,22511,28147,89880,17490,2786,1019.0
202,Karnataka,Kolar,13.312799881235172,78.01376947743476,1536401,776396,760005,1016219,564110,452109,465867,232546,233321,78875,39997,38878,717872,454048,263824,1305431,199873,26722,253,150,2494,92,1386,72407,309494,5051,27235,326567,151042,477609,138015,289841,228422,225498,107929,71422,17961,1079088,399089,1478177,841499,419380,274240,1282,261316,60630,42532,200532,72881,15045,979.0
203,Karnataka,Koppal,15.651253271028034,76.1617048598131,1389920,699926,689994,809085,468785,340300,258608,129341,129267,164271,82761,81510,654766,387974,266792,1218024,161770,4081,296,85,2898,461,2305,31673,223166,2135,15263,272968,64681,337649,222140,357098,127605,113028,72243,43967,10431,946512,472182,1418694,855430,330393,202984,1113,212484,41112,27857,131395,75020,25124,986.0
204,Karnataka,Mandya,12.574901806239744,76.81570098522172,1805769,905085,900684,1149649,638668,510981,265294,131675,133619,22402,11310,11092,871408,575203,296205,1712695,77801,8506,322,299,3607,109,2430,80452,391033,3367,20265,458867,103435,562302,145178,309476,226552,308624,157839,102838,19987,1270494,504734,1775228,902307,527236,375100,1126,370797,47339,59667,281659,72273,12979,995.0
205,Karnataka,Mysore,12.248100259403367,76.52881802853437,3001127,1511600,1489527,1962180,1063766,898414,536643,269331,267312,334547,166697,167850,1314268,921803,392465,2631985,290549,39361,1255,16194,14419,493,6871,273706,640868,28397,80086,540596,380386,920982,207091,537686,404565,452412,222230,212541,26834,2063359,747237,2810596,1580116,865220,553705,2086,529209,139947,95305,457208,113521,22388,985.0
206,Karnataka,Raichur,16.050795353982295,76.87368606194688,1928812,964511,964301,979769,577213,402556,400933,200359,200574,367071,182101,184970,903413,530373,373040,1634062,272022,10394,538,2265,4156,29,5346,51443,314547,5200,33903,330446,125402,455848,147743,385673,163709,153346,82082,50463,14622,997638,783126,1780764,1196670,465173,265810,1159,300223,48296,38538,178262,109289,33248,1000.0
207,Karnataka,Shimoga,14.063845885634592,75.17882078103197,1752753,877415,875338,1263016,674938,588078,308158,153546,154612,65412,32707,32705,780598,534487,246111,1479424,234664,26521,400,120,9234,367,2023,128087,363835,8791,35207,352444,201662,554106,191641,385978,292481,251095,132138,111753,18036,1383122,355222,1738344,913150,513297,325542,764,315329,77868,52344,269559,67079,13157,998.0
208,Karnataka,Tumkur,13.592467760074973,77.02297966260545,2678980,1350594,1328386,1813391,1006024,807367,506901,254535,252366,209559,105265,104294,1354646,837512,517134,2413812,245923,9130,477,187,5067,161,4223,116539,562769,7971,41751,685443,204799,890242,270373,500593,386998,423738,213588,143735,30687,1969712,686274,2655986,1351461,760936,564196,2387,532693,93096,99901,407282,110970,18241,984.0
209,Karnataka,Udupi,13.450404228534568,74.72009990316337,1177361,562131,615230,926429,465704,460725,75429,36988,38441,52897,26228,26669,513241,335399,177842,1009179,96740,65838,232,161,4534,155,522,83810,224814,9070,24817,269817,115572,385389,142493,286193,176260,178094,109663,107279,18444,1018426,204028,1222454,559565,340903,276234,659,220662,21037,34358,136103,53755,22097,1094.0
210,Kerala,Alappuzha,9.542602965599087,76.38010796263319,2127789,1013142,1114647,1852797,890552,962245,201211,97183,104028,6574,3175,3399,804471,536738,267733,1460447,224545,435056,268,146,74,311,6942,274392,507913,28842,71593,331419,392117,723536,133039,334339,418953,573306,274789,198858,58096,1991380,163991,2155371,891512,648522,585591,2164,496464,24772,80987,368315,70844,8129,1100.0
211,Kerala,Ernakulam,10.004879301987431,76.26957729035381,3282388,1619557,1662831,2855676,1425723,1429953,268411,131573,136838,16559,8349,8210,1249343,913249,336094,1509557,514397,1248137,860,614,1176,1083,6564,499291,771287,88737,184167,369694,804997,1174691,212263,446380,554817,702511,389793,429880,113133,2848777,268315,3117092,1396968,1024720,858010,2690,689970,88824,109005,568385,103994,10353,1027.0
212,Kerala,Idukki,9.80480963855423,77.04586641566264,1108974,552808,556166,923010,471881,451129,145486,72399,73087,55815,27995,27820,516363,331710,184653,541854,82206,481507,100,189,44,384,2690,54626,244844,8250,24863,391610,20823,412433,79149,166604,209398,261237,136428,86136,19252,958204,126589,1084793,494456,352163,261471,884,222531,26014,43326,192158,38760,2732,1006.0
213,Kerala,Kannur,11.941523076923056,75.35209891725934,2523003,1181446,1341557,2138434,1012956,1125478,83350,40260,43090,41371,20141,21230,824116,609377,214739,1509592,742483,262526,424,1118,193,722,5945,115356,511167,32653,83940,306288,566191,872479,204713,487016,491844,540383,308670,217203,40277,2290106,279352,2569458,1187177,741984,588081,5761,507341,28563,74153,330674,101710,36672,1136.0
214,Kerala,Kasaragod,12.33310309912974,75.07768497134369,1307375,628613,678762,1037492,516476,521016,53283,26385,26898,48857,23950,24907,462998,325095,137903,729987,486913,87454,151,362,130,152,2226,74092,237670,10378,32484,251641,166164,417805,115476,268084,230416,238900,122657,76192,16585,1068310,212905,1281215,688763,369883,246975,1754,240351,22502,31012,157758,58340,20652,1080.0
215,Kerala,Kollam,8.929388820570157,76.6360775852431,2635375,1246968,1388407,2240273,1074345,1165928,328263,157801,170462,10761,5195,5566,912025,644362,267663,1697635,508500,421598,208,272,63,619,6480,263148,630767,31542,83133,523715,401415,925130,172247,406592,562529,595191,307950,233402,64052,2341963,231286,2573249,1177359,795245,660965,1806,597009,51410,103503,466519,83769,9485,1113.0
216,Kerala,Kottayam,9.643701174068417,76.46059673302705,1974551,968289,1006262,1749798,861592,888206,153909,75503,78406,21972,10974,10998,735735,530322,205413,983598,126499,858608,204,358,83,565,4636,187213,464039,37849,83999,481967,196194,678161,117681,271496,373998,475724,280720,221350,52339,1793308,134393,1927701,811653,596302,565048,1548,434540,37276,70095,330354,74003,6001,1039.0
217,Kerala,Kozhikode,11.392924270557026,75.71158720159153,3086293,1470942,1615351,2615443,1266939,1348504,199191,97279,101912,15228,7429,7799,948981,752333,196648,1734958,1211131,131516,297,235,601,588,6967,145558,641660,36791,107602,323793,666543,990336,247996,564392,647221,630818,351267,250117,53166,2744977,335520,3080497,1487644,909581,686109,2959,638772,35910,84108,444561,122779,32377,1098.0
218,Kerala,Malappuram,10.97329875666072,75.93910775606876,4112920,1960328,2152592,3311315,1597404,1713911,308266,151557,156709,22990,11272,11718,1062424,898157,164267,1135259,2888849,81556,205,179,68,579,6225,139994,730119,27909,119918,634543,522586,1157129,415601,770417,814285,933793,392867,203779,41344,3572086,622345,4194431,2406005,1041361,662311,3243,719609,47021,69135,425449,200802,79209,1098.0
219,Kerala,Palakkad,10.784926903553291,76.49980490693744,2809934,1359478,1450456,2239492,1122600,1116892,403833,197451,206382,48972,24314,24658,1042340,746121,296219,1875980,812936,114397,220,238,78,400,5685,178386,587583,27162,69440,665899,228442,894341,249198,492864,608176,572412,232109,180540,36370,2371669,439934,2811603,1395222,802611,608966,3135,575878,39417,89212,394623,112468,31984,1067.0
220,Kerala,Thiruvananthapuram,8.537101759082221,76.88711502868073,3301427,1581678,1719749,2785408,1354857,1430551,372977,178589,194388,26759,12624,14135,1231669,864101,367568,2194057,452915,630573,404,301,76,1082,22019,343590,783872,71621,155321,559293,609824,1169117,206328,460690,642470,682156,389161,381782,76129,2838716,309042,3147758,1488441,989238,820024,3724,727418,83983,141266,568815,103948,14745,1087.0
221,Kerala,Thrissur,10.458932647907687,76.12321940836945,3121200,1480763,1640437,2678548,1282261,1396287,324350,156480,167870,9430,4362,5068,1095727,789511,306216,1823442,532839,757484,259,278,62,585,6251,338350,721625,56148,132774,336748,715119,1051867,222627,445696,524387,821831,362657,338600,71535,2787333,307665,3094998,1394214,931841,792182,2963,683102,48702,114774,499304,107091,22661,1108.0
222,Kerala,Wayanad,11.715277464788736,76.07587007042254,817420,401684,415736,645585,328136,317449,32578,16406,16172,151443,74476,76967,340077,228639,111438,404460,234185,174453,61,312,1797,286,1866,23028,149864,4712,15944,266183,11805,277988,65326,144896,137227,184266,87042,51111,8786,678654,131211,809865,412806,246590,157326,698,166448,12409,23259,125105,32026,5013,1035.0
223,Madhya Pradesh,Anuppur,23.18184220430107,81.86560000000007,749237,379114,370123,436595,254120,182475,74385,37841,36544,358543,177977,180566,346471,207401,139070,686524,21473,2132,606,86,1653,35434,1329,23388,81338,1290,7266,147388,60325,207713,113208,115716,93450,58536,42743,31646,3066,458365,271733,730098,444954,193520,109813,950,146164,16275,33559,90782,39257,5221,976.0
224,Madhya Pradesh,Ashoknagar,24.63098846153845,77.82974493927134,845071,443837,401234,469109,290304,178805,175764,92216,83548,82072,42447,39625,315270,231829,83441,778214,40707,635,8009,1352,15094,27,1033,15886,84720,619,6016,169606,37135,206741,148647,117053,62802,51499,29551,22791,3466,435809,359525,795334,535410,194772,114131,758,162759,5484,26584,85945,49792,8383,904.0
225,Madhya Pradesh,Balaghat,21.80020720640569,80.42170053380796,1701698,842178,859520,1147623,626468,521155,125426,61576,63850,383026,186979,196047,893014,488610,404404,1519384,38542,5295,1050,72162,4778,58064,2423,27283,277927,1712,13306,400074,70793,470867,290699,312640,235251,168635,126308,74213,7414,1215160,493415,1708575,969773,453605,276799,1521,366925,16421,66352,230275,89463,8220,1021.0
226,Madhya Pradesh,Barwani,21.702135714285724,74.91004719710673,1385881,699340,686541,549926,313642,236284,87991,44478,43513,962145,482182,479963,653897,365928,287969,1318869,58222,2967,2361,416,2289,263,494,30115,181139,1158,8516,250358,48912,299270,157337,137116,74067,59100,42649,30754,2581,503604,825034,1328638,923665,302833,158594,789,224957,12865,23322,102717,89149,27873,982.0
227,Madhya Pradesh,Betul,21.964626315789477,77.7873428189117,1575362,799236,776126,939769,529783,409986,159296,81621,77675,667018,333166,333852,786980,453887,333093,1505745,37590,3271,1078,9651,3759,13048,1220,45270,230974,2109,13755,318945,87704,406649,239114,232532,176325,140402,105696,82761,5876,982706,603098,1585804,938819,392728,242592,1223,284681,23266,41971,178031,92643,14429,971.0
228,Madhya Pradesh,Bhind,26.35951126187245,78.7618324287653,1703005,926843,776162,1094917,676513,418404,374799,204212,170587,6131,3283,2848,520768,455775,64993,1595400,66776,973,4047,12215,19950,73,3571,32268,107819,1166,14368,271211,88385,359596,202629,261162,199044,140743,96011,50222,8059,957870,388473,1346343,1040736,399676,258588,4005,288622,7464,32208,126610,101448,37990,837.0
229,Madhya Pradesh,Bhopal,23.480726143790854,77.39246623093679,2371061,1236130,1134931,1660690,920314,740376,357516,185902,171614,69429,35966,33463,867457,644960,222497,1755861,525434,23432,10789,21688,25950,335,7572,281442,452912,40788,94729,118893,581826,700719,229082,303171,287198,211371,178165,266618,30845,1506450,462581,1969031,1405814,625594,330291,9362,357177,107036,63397,282108,120466,21779,918.0
230,Madhya Pradesh,Burhanpur,21.364567254408065,76.24460478589425,757847,388504,369343,408679,233073,175606,64254,33037,31217,230095,116420,113675,328339,211925,116414,552526,180840,1199,1074,19883,1884,99,342,40478,112420,986,5058,115979,62861,178840,107547,119468,69765,57058,42618,28237,4761,429454,317962,747416,469838,181605,106034,370,124087,12487,17357,72437,43386,10974,951.0
231,Madhya Pradesh,Chhatarpur,24.813637376460004,79.56449299191374,1762375,936121,826254,943033,572010,371023,405313,215258,190055,73597,38081,35516,751797,481518,270279,1676918,70351,1980,968,250,10409,102,1397,36506,176056,1880,15567,375869,95048,470917,270951,236054,160310,112961,77787,59704,7837,925604,770268,1695872,1112636,394060,252417,3262,354948,12483,58265,169728,118698,24194,883.0
232,Madhya Pradesh,Chhindwara,22.227966971713823,78.76413136439254,2090922,1064468,1026454,1294198,731294,562904,232244,118465,113779,769778,385785,383993,957984,582263,375721,1923920,100692,4893,2258,24471,7830,25771,1087,73284,344875,3588,20034,413142,140802,553944,284113,336391,225747,215098,167946,112383,12141,1353819,663446,2017265,1232263,535316,321977,1366,376356,34728,59289,244209,117941,16950,964.0
233,Madhya Pradesh,Damoh,23.76624407960196,79.47049303482588,1264219,661873,602346,747715,445737,301978,246337,129877,116460,166295,84809,81486,574595,367711,206884,1186420,47966,1681,1096,119,25005,82,1850,23270,187731,1432,10504,303387,66514,369901,197917,217296,150040,95032,64414,41158,5260,771117,469038,1240155,768929,312593,181403,1294,283661,10655,64022,168849,62447,5797,910.0
234,Madhya Pradesh,Datia,25.90226439560441,78.63916571428574,786754,420157,366597,491445,303815,187630,200270,107132,93138,15061,7870,7191,321160,225662,95498,747693,28483,683,490,7923,453,10,1019,17555,97696,616,5251,160453,43401,203854,132176,131372,88949,73398,48978,34853,4262,513988,260076,774064,473097,195131,118186,340,153252,4235,23731,82921,43215,9669,873.0
235,Madhya Pradesh,Dewas,22.7851110021322,76.46088805970157,1563715,805359,758356,925369,550716,374653,292007,150260,141747,272701,139174,133527,742676,451501,291175,1376591,174259,2355,2330,382,6497,72,1229,59521,270457,3518,16523,274995,101014,376009,242508,225380,149522,125772,94403,55383,4991,897959,565365,1463324,943954,388648,230280,833,278354,18785,36633,160739,86599,20771,942.0
236,Madhya Pradesh,Dhar,22.572681718963157,75.1105620736698,2185793,1112725,1073068,1077338,638479,438859,145436,74291,71145,1222814,614619,608195,1027974,597079,430895,2051219,116202,2261,1607,328,12199,88,1889,75637,349639,2388,18626,412348,103364,515712,262090,244058,164576,134279,99882,66721,6543,978149,1021851,2000000,1377326,533243,273050,2174,378227,33109,50306,209444,129512,30551,964.0
237,Madhya Pradesh,Dindori,22.83738437047757,81.04332966714911,704524,351913,352611,378714,222759,155955,39782,20366,19416,455789,225699,230090,389925,203383,186542,605435,6736,4238,260,61,687,84006,3101,4576,62372,554,6447,218021,9774,227795,103002,113875,84065,49277,31104,15179,1674,398176,295655,693831,419531,181841,102522,630,162879,4301,36568,96460,33585,2386,1002.0
238,Madhya Pradesh,Guna,24.49043927178156,77.2235895968791,1241519,649362,592157,653980,400537,253443,193115,100646,92469,190819,98206,92613,514897,335454,179443,1172248,49203,1208,3271,529,13474,52,1534,34184,144248,2482,11740,212765,72320,285085,197902,157141,84560,79924,50724,42147,6451,618849,578034,1196883,793150,285176,162104,1089,224082,13478,33161,119065,75408,13799,912.0
239,Madhya Pradesh,Gwalior,26.04074441964285,78.12782433035713,2032036,1090327,941709,1357210,803114,554096,393068,210354,182714,72133,37704,34429,685311,548820,136491,1835299,141735,4119,24790,4361,18058,217,3457,165061,306859,15779,46454,172720,272172,444892,235648,235924,204871,193082,166719,193947,23148,1253339,554486,1807825,1218319,519728,291451,2538,316586,45158,36335,188922,112892,31356,864.0
240,Madhya Pradesh,Harda,22.227659781121783,77.07022571819435,570465,294838,275627,352550,203807,148743,92865,48553,44312,159678,81446,78232,230979,156852,74127,527462,38640,683,676,93,1573,55,1283,22174,95066,986,5376,112714,31845,144559,90059,87733,60757,46556,31939,27126,3469,347639,177731,525370,347774,138882,83417,392,99039,7072,13458,56810,33489,7224,935.0
241,Madhya Pradesh,Hoshangabad,22.595268801996703,78.02168094841929,1241350,648725,592625,810644,469199,341445,205007,107237,97770,197300,101041,96259,478082,345435,132647,1175203,52269,4453,3127,1550,3888,107,753,61415,198076,2871,14456,209650,105746,315396,159703,183156,145076,119682,89589,84769,9279,791254,344492,1135746,730768,318232,191501,849,217340,25354,33099,137955,69820,11688,914.0
242,Madhya Pradesh,Indore,22.680265752128648,75.9133801324502,3276697,1699627,1577070,2309130,1289631,1019499,545239,280184,265055,217679,112687,104992,1268195,939055,329140,2728225,415142,18523,25696,11496,71667,720,5228,417170,593576,48691,111478,200371,587947,788318,428413,472233,384611,362209,300076,382658,36326,2366526,718174,3084700,1877270,894464,493096,11867,457287,134832,64254,347858,154066,49156,928.0
243,Madhya Pradesh,Jabalpur,23.18525572327043,79.98328754716981,2463289,1277278,1186011,1756468,980307,776161,348029,179858,168171,375231,189915,185316,1005624,705970,299654,2159065,203652,23142,13256,4320,33728,21010,5116,192581,452023,20443,58601,272284,352477,624761,267932,352284,313910,268333,222987,235072,24872,1685390,540029,2225419,1387369,679185,391903,4832,434882,64448,73181,309266,112904,19678,929.0
244,Madhya Pradesh,Jhabua,22.419578015397768,74.40921616766468,1025048,515023,510025,352081,214582,137499,17427,8770,8657,891818,446359,445459,515121,265489,249632,960925,15733,38423,141,65,8871,388,502,16683,125411,744,5591,211080,24713,235793,98308,79781,40466,38236,28990,20240,1973,307994,775664,1083658,684200,220769,119681,398,197972,7149,17169,88532,80303,21617,990.0
245,Madhya Pradesh,Katni,23.724416229116937,80.33819665871127,1292042,662013,630029,790773,460583,330190,155717,79369,76348,317699,159799,157900,543874,348410,195464,1240650,37232,3158,1167,157,5342,2643,1693,38086,172416,2179,13094,276151,72880,349031,198447,207366,161727,112242,80935,53578,6658,820953,465374,1286327,778414,326582,185857,1189,268593,16045,53016,158431,70214,7365,952.0
246,Madhya Pradesh,Mandla,22.70348712446353,80.38600543633753,1054905,525272,529633,604962,348033,256929,48425,24652,23773,610528,299918,310610,559649,300235,259414,849518,16558,12450,436,297,1789,170533,3324,18413,143803,912,9042,279674,37258,316932,156711,170994,115632,82166,58066,35476,4587,623632,376944,1000576,614794,278553,160510,1048,232935,8554,47721,147190,50642,3634,1008.0
247,Madhya Pradesh,Mandsaur,24.19278764044944,75.43588667736759,1340411,682851,657560,834591,502898,331693,249024,126822,122202,33092,17023,16069,679723,397714,282009,1192588,125548,1120,849,242,19029,77,958,47723,239885,2324,12507,302287,81832,384119,244891,217234,149219,109751,77219,52546,4956,855816,467002,1322818,781000,346861,211815,735,261639,18028,43289,158569,70418,12135,963.0
248,Madhya Pradesh,Morena,26.37313504531724,77.88447341389724,1965970,1068417,897553,1179685,747652,432033,421519,228548,192971,17030,8947,8083,675993,525329,150664,1875495,76159,1092,557,3234,6681,92,2660,45113,131486,1781,20172,319298,95288,414586,288979,285682,228234,170254,115790,71005,8265,1168209,706917,1875126,1254302,452484,257704,1480,346829,12915,44701,166295,117005,34308,840.0
249,Madhya Pradesh,Neemuch,24.70311893333336,75.06608186666664,826067,422653,403414,508834,307889,200945,111162,56400,54762,71441,36738,34703,418682,245708,172974,741288,67324,1508,1110,224,14165,115,333,34666,145258,1945,8342,174235,67962,242197,137656,127167,83189,69134,53465,42343,6119,519073,289113,808186,476995,217403,131227,442,157683,14613,29512,97561,40638,7955,954.0
250,Madhya Pradesh,Panna,24.451325840092657,80.21133001158752,1016520,533480,483040,552559,332140,220419,207990,109421,98569,170879,87697,83182,431998,275375,156623,974748,35214,418,186,37,4734,218,965,13285,76097,653,8501,256744,32179,288923,171707,134936,99251,70359,47903,29795,3052,557003,427997,985000,635347,235035,144827,1311,226597,5039,47760,119049,60233,6612,905.0
251,Madhya Pradesh,Raisen,23.292518206521724,78.16305495923909,1331597,700358,631239,820220,479093,341127,225891,119226,106665,205006,105627,99379,517838,370366,147472,1195235,120331,1725,2262,253,10637,190,964,34499,194373,1141,9931,251272,74441,325713,237981,210402,144108,117908,69419,48384,4607,832809,444877,1277686,832939,316319,181524,815,248660,17923,40528,143773,79383,10526,901.0
252,Madhya Pradesh,Rajgarh,23.785499026425583,76.66431223922116,1545814,790212,755602,804245,488797,315448,295718,151260,144458,53751,27477,26274,745603,429768,315835,1433879,106928,1243,460,121,1599,50,1534,30688,231130,1611,12718,331894,69823,401717,239738,174381,103464,96386,72316,51499,4799,742583,706958,1449541,935230,363218,246447,919,324899,11977,65818,182265,83043,10722,956.0
253,Madhya Pradesh,Ratlam,23.503562290502792,75.14895782122909,1455069,738241,716828,825880,485090,340790,198612,100629,97983,409865,206290,203575,690980,411446,279534,1267043,151071,3996,1353,175,29353,123,1955,67830,213825,3644,14905,266716,107151,373867,224715,194131,129392,111461,86507,67192,5868,819266,622153,1441419,876905,363858,213560,746,265828,21958,40986,154724,81285,16121,971.0
254,Madhya Pradesh,Rewa,24.861184625158856,81.57572465057183,2365106,1225100,1140006,1441757,845572,596185,383508,198144,185364,311985,161696,150289,991946,617184,374762,2268838,85414,1964,832,986,655,232,6185,45180,251132,3406,31194,523910,94489,618399,344362,330131,312931,206274,180635,122371,11438,1508142,766166,2274308,1460075,540235,362228,2568,524701,11182,112445,266104,140110,21714,931.0
255,Madhya Pradesh,Sagar,23.800318709677374,78.71940357771273,2378458,1256257,1122201,1545719,908607,637112,501630,266306,235324,221936,114771,107165,1006035,682077,323958,2198297,103480,5580,4146,991,62992,168,2804,68482,366494,4546,24811,448408,165507,613915,347752,426916,297079,214137,137899,116753,14346,1554882,711804,2266686,1470688,569166,335432,3172,466797,29071,90478,272006,129330,17541,893.0
256,Madhya Pradesh,Satna,24.62777621776502,80.75547048710598,2228935,1157495,1071440,1371781,801051,570730,398569,205987,192582,319975,163166,156809,911349,590487,320862,2158623,59471,2228,1163,364,3135,1689,2262,55196,294702,3754,22751,461831,114173,576004,338947,334635,309536,197373,148091,105499,16052,1450133,715509,2165642,1365647,535086,326049,2153,455270,16995,86518,242126,128453,21656,926.0
257,Madhya Pradesh,Sehore,22.9297199679658,77.06780202883085,1311332,683743,627589,780362,469208,311154,271281,141366,129915,145512,74391,71121,586087,364559,221528,1163607,137980,1404,640,357,6232,66,1046,30868,212138,1566,11166,270427,59220,329647,193885,179388,136284,120687,77541,50655,6755,765195,508396,1273591,817608,305605,187611,508,235670,11139,31433,126997,78612,14544,918.0
258,Madhya Pradesh,Seoni,22.33230487804874,79.66053863928111,1379131,695879,683252,864194,485341,378853,130797,66830,63967,519856,258121,261735,684434,394660,289774,1145052,79739,1857,360,7288,4982,135315,4538,26893,228695,1182,10417,335045,47542,382587,223650,241327,151636,116124,84398,55984,6427,879546,458811,1338357,809922,363037,205237,935,284384,14621,54607,180853,71679,6135,982.0
